Frequency,Offset,Tone,Call,Location,ST/PR,Use,VOIP,DGTL,Mi,Dir,,state_id,ID,Latitude,Longitude,Downlink,Uplink,Uplink Tone,County,Op Status,Coverage,Sponsor,EchoLink,Coordination,Last update,YSF Digital Enabled,DG-ID,WIRES-X,Features,IRLP,Notes,Downlink Tone,On-air,Affiliate,Web links,AllStar,Nets,DMR Enabled,Color Code,Wide Network,Talkgroups,Rocky Mountain Wide,Central Regional,DMR ID,Links,Commands,IPSC Network,Bandwidth,Grid,Mixed-Mode,Northern Colorado Regional,Feed,P-25 Digital Enabled,NAC,Default Reflector,D-STAR Enabled,Node,Sources,NXDN Enabled,RAN,NXDN Bandwidth,NXDN Network,Local Network,TAC 310,TAC 311,Colorado,Colorado Chat,Southern Colorado,Eastern Colorado,Devilshead Local,Talkgroup Network,Local/Cluster,Local or Reflector,Kansas,CKRG,KansasLink,RX Location,Gunbarrel,Lousville,Lyons,Louisville #2,DCI Bridge,N. Colorado,Mountain Reg USA,Worldwide English,North America,Location Photo,Worldwide,English
146.895,-0.6,103.5,KE0AE,Stratton,CO,OPEN,E,,17.97,W,Node Offline,08,122,39.3033,-102.605,146.895,146.295,103.5,Kit Carson,On-Air,,Big Sandy ARC,830619,CCARC,2018-04-01,,,,,,,,,,,,,,,,,,,,,,,,,,,,,,,,,,,,,,,,,,,,,,,,,,,,,,,,,,,,,,,,
447.6,-5,103.5,KC0VJD,Firstview,CO,OPEN,W,Y,38.31,SSW,,08,17703,38.7958,-102.548,447.6,442.6,,Cheyenne,On-Air,"US-40, US-287, US-385, CO-94, CO-96 Kit Carson, Cheyenne Wells, Firstview, Eads, Aroya, Sheridan Lake",Delbert Noakes (KC0VJD),,CCARC,2019-04-24,yes,Open ↑ / Open ↓,35710,"APRS Digireater &amp; iGate, Weather Station",,,,,,,,,,,,,,,,,,,,,,,,,,,,,,,,,,,,,,,,,,,,,,,,,,,,,,,,,,,,
444.6,5,146.2,WA0VJR,Wallace,KS,OPEN,I,,45.21,SE,,20,3559,38.9139,-101.594,444.6,449.6,146.2,Wallace,On-Air,US-40 Repeater Coverage Map,WA0VJR,,,2019-03-27,,,,,3148,Dial 9335 to access K-Link,,,,,,,,,,,,,,,,,,,,,,,,,,,,,,,,,,,,,,,,,,,,,,,,,,,,,,,,,,
444.75,5,162.2,NV8Q,"Colby, K-Link",KS,OPEN,,,62.75,ESE,,20,8689,39.4012,-101.101,444.75,449.75,162.2,Thomas,,Wide area. Click for coverage map. 50 mi radius.,,,Kansas Repeater Council,2018-10-15,,,,Linked to K-Link Repeater Network E-power (batt) Allstar 46010,,"Repeater is intermittently off-air, and the Allstar node is down.",162.2,Unknown,K-Link Repeater Network,K-Link Repeater Network,,,,,,,,,,,,,,,,,,,,,,,,,,,,,,,,,,,,,,,,,,,,,,,,,,,,,,
442.175,5,156.7,K0WPM,Tribune,KS,OPEN,,,64.11,SSE,,20,15098,38.4697,-101.753,442.175,447.175,156.7,Greeley,On-Air,,WKARC,,,2019-05-07,,,,,,,,,,,,,,,,,,,,,,,,,,,,,,,,,,,,,,,,,,,,,,,,,,,,,,,,,,,,,,,,
146.82,-0.6,156.7,NW0K,Colby,KS,OPEN,I,,64.12,ESE,,20,3889,39.3915,-101.074,146.82,146.22,156.7,Thomas,On-Air,Local,TARC,,Kansas Repeater Council,2019-05-06,,,,"Closed autopatch, e-power.",7552,,156.7,,,,,,,,,,,,,,,,,,,,,,,,,,,,,,,,,,,,,,,,,,,,,,,,,,,,,,,,,
147.06,0.6,103.5,KE0AE,Genoa,CO,OPEN,A,,65.24,W,,08,128,39.2688,-103.488,147.06,147.66,103.5,Lincoln,On-Air,"I-70, US-71, US-287, US-40, US-24",BSARC,,CCARC,2019-07-21,,,,"APRS repeater / weather station, remote base, e-power (solar - completely off the electrical grid).",,,,,,http://www.bigsandyradio.com/,42740,Big Sandy Net: Tues 19:00,,,,,,,,,,,,,,,,,,,,,,,,,,,,,,,,,,,,,,,,,,,,,,,,,,,,
446.7375,-5,CC,K0RTS,"Genoa, Limon",CO,OPEN,,D,65.86,W,,08,13581,39.2783,-103.5,446.7375,441.7375,,Lincoln,On-Air,"I-70 H-40 H-287 Arriba, Genoa, Hugo, Limon 50 mile radius",K0RTS KC0VJD,,CCARC,2016-01-31,,,,,,Colorado on TG700 Slot 1 Denver on TG720 Slot 2,,,RMHam,,,,yes,8,,"Open Talkgroup View Assignment TS TG Access Rocky Mountain Wide 1 700 Central Regional 2 720 function myFunction(id) { var x = document.getElementById(id); if (x.className.indexOf(""w3-show"") == -1) { x.className += "" w3-show""; } else { x.className = x.className.replace("" w3-show"", """"); } }",1,2,,,,,,,,,,,,,,,,,,,,,,,,,,,,,,,,,,,,,,,,,,,,,,
447,-5,103.5,KC0VJD,Hugo,CO,OPEN,W,Y,67.16,WSW,,08,17059,39.0542,-103.48,447,442,,Lincoln,On-Air,"I-70, US-71, US-287, US-40, US-24, Hugo, Limon, Genoa, Punkin Center, Arriba.",Delbert Noakes (KC0VJD),,CCARC,2019-04-24,yes,Open ↑ / Open ↓,30534,APRS repeater &amp; I-Gate / Weather station,,,,,,,,,,,,,,,,,,,,,,,,,,,,,,,,,,,,,,,,,,,,,,,,,,,,,,,,,,,,
448.175,-5,CC,W0FT,Akron,CO,OPEN,,D,77.5,NW,,08,16784,40.1605,-103.214,448.175,443.175,,Morgan,On-Air,,W0FT,,CCARC,2018-02-01,,,,,,,,,Rocky Mountain Ham Radio,http://www.rmham.org/,,,yes,7,,,,,310833,,,,,,,,,,,,,,,,,,,,,,,,,,,,,,,,,,,,,,,,,,,,,
145.4,-0.6,88.5,KB0VJJ,Akron,CO,OPEN,,,77.51,NW,,08,2,40.1606,-103.214,145.4,144.8,88.5,Washington,On-Air,Northeastern plains of Colorado.,Colorado Connection,,CCARC,2018-11-02,,,,,,Part of the Colorado Connection system of repeaters,123,,,,,Colorado Traffic Net: Daily at 19:30. Colorado Connection Net (all welcome): Thu at 20:00. Statewide ARES: Sun at 20:00.,,,,,,,,Full-time to the Colorado Connection System .,,,,,,,,,,,,,,,,,,,,,,,,,,,,,,,,,,,,,,,,,,,,
444.3,5,141.3,K0ECT,Elkader,KS,OPEN,,,80.8,SE,,20,4100,38.785,-100.921,444.3,449.3,141.3,Logan,On-Air,,SKECT,,Kansas Repeater Council,2018-07-12,,,,E-power.,,,141.3,,,http://skect.org/default.aspx,,,,,,,,,,Full-time to the SKECT System .,,,,,,,,,,,,,,,,,,,,,,,,,,,,,,,,,,,,,,,,,,,,
449.25,-5,123,K0UPS,Cedar Point,CO,OPEN,EI,,81.99,W,Node Offline,08,9583,39.3703,-103.801,449.25,444.25,123,Elbert,On-Air,"I-70 Limon, Co area.",K0UPS Club c/o N1UPS,3349,CCARC,2014-09-02,,,,Full duplex node.,3349,"K0UPS Buster Brown Radio Club. North West of Limon, Colorado.",123,,,,,,,,,,,,,,** [StarStar] Prefix for Echolink Node.,,,,,,,,,,,,,,,,,,,,,,,,,,,,,,,,,,,,,,,,,,,
449.2,-5,CC 162.2,W0CTS,Lamar,CO,OPEN,,D,82.62,S,Static Talkgroups: 3108 - Colorado - Slot 1 3740 - REACT - Slot 1,08,18386,38.12810135,-102.53199768,449.2,444.2,162.2,Prowers,On-Air,,,,,2019-12-21,,,,TS1 TG3108 Colorado TS1 TG31083 Co Severe Wx TS2 not networked/local,,,162.2,,,https://brandmeister.network/?page=repeater&amp;id=311409,,,yes,1,,,,,311409,,,BrandMeister c Record retrieved from radioid.net,,,,,,,,,,,,,,,,,,,,,,,,,,,,,,,,,,,,,,,,,,
444,5,141.3,K0ECT,Syracuse,KS,OPEN,,,82.81,SSE,,20,4086,38.175,-101.761,444,449,141.3,Hamilton,On-Air,,SKECT,,Kansas Repeater Council,2018-07-12,,,,E-power.,,,141.3,,,http://skect.org/default.aspx,,,,,,,,,,Full-time to the SKECT System .,,,,,,,,,,,,,,,,,,,,,,,,,,,,,,,,,,,,,,,,,,,,
449.9,-5,107.2,N1FSX,Punkin Center,CO,OPEN,,,82.92,WSW,,08,7395,38.852,-103.7,449.9,444.9,107.2,Lincoln,On-Air,,,,CCARC,2012-07-20,,,,,,,,,BSAR,,,,,,,,,,,,,,,,,,,,,,,,,,,,,,,,,,,,,,,,,,,,,,,,,,,,,,,
449.5,-5,123,KC0HH,Lamar,CO,OPEN,EI,,86.32,SSW,ON - IDLE,08,171,38.0872,-102.62,449.5,444.5,123,Prowers,On-Air,45,Lamar ARC,37784,CCARC,2018-03-12,,,,,3774,,,,,,,,,,,,,,,"Full-time to 146.61000 (N0LAR) at Lamar, CO .",,,,,,,,,,,,,,,,,,,,,,,,,,,,,,,,,,,,,,,,,,,,
146.955,-0.6,,N0JUN,Holyoke,CO,OPEN,,,88.34,N,,08,163,40.5844,-102.302,146.955,146.355,,Phillips,,,PCARC,,CCARC,2012-11-10,,,,E-power.,,,,Unknown,,,,,,,,,,,,,,,,,,,,,,,,,,,,,,,,,,,,,,,,,,,,,,,,,,,,,,,,
146.61,-0.6,123,N0LAR,Lamar,CO,OPEN,EI,,89.5,SSW,ON - IDLE,08,3794,38.0369,-102.6,146.61,146.01,123,Prowers,On-Air,Hwy 287 - Springfield to Eads Hwy 50 - Holly to Rocky Ford.,Lamar Amateur Radio Club,37784,CCARC,2019-08-10,,,,,3774,,123,,,,,NWS Net 12:15pm daily,,,,,,,,"Full-time to 449.50000 (KC0HH) at Lamar, CO .",,,25,DM-88,,,,,,,,,,,,,,,,,,,,,,,,,,,,,,,,,,,,,,,,
146.7,-0.6,141.3,WA0OQA,Scott City,KS,OPEN,A,Y,89.64,SE,,20,3940,38.4846,-100.979,146.7,146.1,141.3,Scott,On-Air,"Scott, Finney and Kearny counties",Sand Hills ARC,,Kansas Repeater Council,2018-09-16,yes,Open ↑ / Open ↓,,E-power.,,Comet GP-6 @ 125'.,141.3,,,,48589,Tue at 20:30.,,,,,,,,"Full-time to 146.91000 (WA0OQA) at Garden City, KS .",,,,DM98,Yes; analog capable.,,,,,,,,,,,,,,,,,,,,,,,,,,,,,,,,,,,,,,,
444.95,5,100,W0MI,"Scott City, K-Link",KS,OPEN,,,92.1,SE,,20,6463,38.4809,-100.924,444.95,449.95,100,Scott,Off-Air,Click for coverage map. 35 mi radius.,SHARC,,Kansas Repeater Council,2019-07-27,,,,Internet Linked to K-Link Repeater Network.,,,100,,,http://ks0lnk.net,,,,,,,,,,Full-time internet linked to the K-Link System .,,,,,,,,,,,,,,,,,,,,,,,,,,,,,,,,,,,,,,,,,,,,
146.775,-0.6,,KB0CKE,Syracuse,KS,OPEN,,,95.73,SSE,,20,3947,37.9806,-101.753,146.775,146.175,,Hamilton,On-Air,Local. 20 mi radius.,KB0CKE,,Kansas Repeater Council,2019-03-31,,,,,,,,,,,,,,,,,,,,,,,,,,,,,,,,,,,,,,,,,,,,,,,,,,,,,,,,,,,,,,,,
147.105,0.6,107.2,WA0DE,Simla,CO,OPEN,,,97.57,W,,08,12167,39.2267,-104.09,147.105,147.705,107.2,Elbert,On-Air,"I-70, E. Arapahoe, Elbert, Lincoln Counties",ARES of Douglas and Elbert Counties,,CCARC,2017-07-19,,,,Linked to CRA 447.150 - Conifer,,,107.2,,Colorado Repeater Association,http://www.w0cra.org/,,,,,,,,,,"Full-time to 448.42500 (W0CRA) at Larkspur, Westcreek, CO .",,,,,,,,,,,,,,,,,,,,,,,,,,,,,,,,,,,,,,,,,,,,
145.19,-0.6,,KB0DZB,Oberlin,KS,OPEN,,,99.3,E,,20,3907,39.8322,-100.534,145.19,144.59,,Decatur,On-Air,Local,TRI-STATE.,,Kansas Repeater Council,2019-05-06,,,,Linked.,,,,,,,,,,,,,,,,,,,,,,,,,,,,,,,,,,,,,,,,,,,,,,,,,,,,,,,,,,,,
145.295,-0.6,100,WA0JTB,"Sterling, CO",CO,OPEN,,,103.83,NNW,,08,238,40.6256,-103.207,145.295,144.695,,Logan,On-Air,Wide area,NECARA,,CCARC,2018-07-10,,,,"Autopatch, e-power.",,,,,,,,,,,,,,,,,,,,,,,,,,,,,,,,,,,,,,,,,,,,,,,,,,,,,,,,,,,,
448.2,-5,CC,W0FT,"Fort Morgan, Fort Morgan EOC",CO,OPEN,,D,104.24,NW,,08,10783,40.2503,-103.8,448.2,443.2,,Morgan,On-Air,,,,CCARC,2017-03-11,,,,Mixed Mode,,"See the website for more info on Time Slot, Talk Group and Color Code Programming.",,,NEAHR,Rocky Mountain Ham Radio,,,yes,7,,"Open Talkgroup View Assignment TS TG Access Rocky Mountain Wide 1 700 Northern Colorado Regional 2 721 function myFunction(id) { var x = document.getElementById(id); if (x.className.indexOf(""w3-show"") == -1) { x.className += "" w3-show""; } else { x.className = x.className.replace("" w3-show"", """"); } }",1,,310812,Full-time to the Colorado TRBO System .,,,,,,2,,,,,,,,,,,,,,,,,,,,,,,,,,,,,,,,,,,,,,
444.5,5,151.4,N7UVW,McCook,NE,OPEN,,,106.84,NE,,31,15122,40.1967,-100.625,444.5,449.5,151.4,Frontier,On-Air,20,dirt,,,2017-12-26,,,,link comm rlc 1,,16,,,Dirt Truckin,,,,,,,,,,,,,,,,,,,,,,,,,,,,,,,,,,,,,,,,,,,,,,,,,,,,,,,
444.8,5,162.2,N7UVW,McCook,NE,OPEN,,,106.84,NE,,31,15136,40.1967,-100.625,444.8,449.8,162.2,Red Willow,On-Air,50,N7UVW,,,2017-12-26,,,,Link Com RLC-1 Controller,,180,,,Dirt Truckin,,,,,,,,,,,,,,,,,,,,,,,,,,,,,,,,,,,,,,,,,,,,,,,,,,,,,,,
147.27,0.6,,K0TAJ,"McCook, 180' tower S. of McCook",NE,OPEN,,,107.13,NE,,31,39,40.2053,-100.626,147.27,147.87,,Red Willow,On-Air,50,McCook ARA,,,2017-12-26,,,,Fusion Repeater,,,,,,,,Monday Nights at 7PM,,,,,,,,,,,,,,,,,,,,,,,,,,,,,,,,,,,,,,,,,,,,,,,,,,,,
146.985,-0.6,156.7,N0OMC,Lakin,KS,OPEN,,,109.13,SSE,,20,3967,37.9358,-101.264,146.985,146.385,156.7,Kearney,On-Air,"Kearny, Finney and Scott Counties",N0OMC,,Kansas Repeater Council,2018-09-16,,,,E-power,,Linked full time to the Garden City 146.910 and Scott City 146.700 repeaters,156.7,,,,,,,,,,,,,,,,,,,,,,,,,,,,,,,,,,,,,,,,,,,,,,,,,,,,,,,,,
442.5,5,141.3,K0ECT,"Garden City, Tennis",KS,OPEN,I,,111.75,SE,,20,4046,38.164,-100.801,442.5,447.5,141.3,Finney,On-Air,,SKECT,,Kansas Repeater Council,2018-07-12,,,,E-power.,3885,,141.3,,,http://skect.org/default.aspx,,,,,,,,,,Full-time to the SKECT System .,,,,,,,,,,,,,,,,,,,,,,,,,,,,,,,,,,,,,,,,,,,,
147.36,0.6,,KC0ITF,"La Junta, North La Junta",CO,PRIVATE,W,Y,113.02,SW,,08,167,37.9995,-103.529,147.36,147.96,,Otero,On-Air,La Junta: U.S. Route 50 CO State Hwy 10 CO State Hwy 109 CO State Hwy 194 U.S. Route 350,,,,2018-09-30,yes,Open ↑ / Open ↓,11360,E-power,,Digital Wires-X,123,,KC0ITF,,,,,,,,,,,,,,,,Yes; analog capable.,,,,,,,,,,,,,,,,,,,,,,,,,,,,,,,,,,,,,,,
146.91,-0.6,141.3,WA0OQA,Garden City,KS,OPEN,A,,119.07,SE,,20,3959,37.9717,-100.873,146.91,146.31,141.3,Finney,On-Air,"Finney, Scott and Kearney counties.",Sand Hills ARC,,Kansas Repeater Council,2018-09-16,,,,E-power.,,Linked full time to Scott City 146.700 and Lakin 146.985 repeaters.,141.3,,,,48588,Tue at 20:30.,,,,,,,,"Full-time to 146.70000 (WA0OQA) at Scott City, KS .",,,,,,,,,,,,,,,,,,,,,,,,,,,,,,,,,,,,,,,,,,,,
146.88,-0.6,162.2,N0KOM,"Lenora, K-Link",KS,OPEN,A,,123.21,ESE,,20,3956,39.573,-99.986,146.88,146.28,162.2,Norton,On-Air,Click for coverage map. 50 mi radius.,N0KOM,,Kansas Repeater Council,2019-03-26,,,,"e-power, K-Link.",,,162.2,,,K-Link Repeater Network,49527,Sat @ 21:00 local,,,,,,,,Full-time to the K-Link System .,,,,,,,Listen Live,,,,,,,,,,,,,,,,,,,,,,,,,,,,,,,,,,,,,
927.7375,-25.8,100,KI0HC,Parker,CO,OPEN,,,123.81,W,,08,14732,39.5391,-104.569,927.8375,902.025,,Douglas,On-Air,This repeater is east of parker so it covers up in the foothills. You can hilltop into Wyoming &amp; on I-80 west to MM323 The Abraham Lincoln Monument. South I-25 to Fountain MM125. The hills are your friends in the 900 world!,,,CCARC,2018-02-21,,,,,,Offset is -25.8125 In Nac 294 Out Nac 293,,,,,,,,,,,,,,,,,,,,,,yes,294,yes,,,,,,,,,,,,,,,,,,,,,,,,,,,,,,,,,,
447.625,-5,100,KD0MDP,"Falcon, Black Forest",CO,OPEN,EIA,,126.59,W,ON - IDLE,08,13294,39.0437,-104.608,447.625,442.625,100,El Paso,On-Air,,KD0MDP,363976,,2015-06-02,,,,Linked.,7301,,100,,The Fun Machine,,28299,,,,,,,,,Full-time to the The Fun Machine System .,,,,,,,,,,,,,,,,,,,,,,,,,,,,,,,,,,,,,,,,,,,,
52.87,-1.7,141.3,WA0OQA,Garden City,KS,OPEN,,,128,SE,,20,15311,38.1028,-100.464,52.87,51.17,141.3,Finney,On-Air,30,SHARC,,Kansas Repeater Council,2019-03-18,,,,,,200,141.3,,,,,,,,,,,,,,,,,,,,,,,,,,,,,,,,,,,,,,,,,,,,,,,,,,,,,,,,,
447.2,-5,151.4,,Falcon,CO,OPEN,,Y,128.06,W,,08,13790,38.933,-104.609,447.2,442.2,,El Paso,Testing,"Falcon, Black Forest, Peyton Areas",GGARC,,,2015-11-11,yes,Open ↑ / Open ↓,,,,,,,Garden of the Gods Amateur Radio Club,,,,,,,,,,,,,,,,,,,,,,,,,,,,,,,,,,,,,,,,,,,,,,,,,,,,,,,
446.85,-5,,K0PRA,Franktown,CO,OPEN,,S,128.7,W,,08,11473,39.3935,-104.675,446.85,441.85,,Douglas,On-Air,,Parker Radio Association,,CCARC,2018-03-18,,,,D-Star B module,,,,,,http://parkerradio.org,,,,,,,,,,,,,,,,,,,,,yes,K0PRA (B) Repeater,jfindu lookup / dstar-users lookup,,,,,,,,,,,,,,,,,,,,,,,,,,,,,,,
146.76,-0.6,123,N0UGO,Ogallala,NE,OPEN,EI,,129.19,NNE,Node Offline,31,11025,41.1282,-101.72,146.76,146.16,123,Keith,On-Air,,Charlie Allen,751985,,2015-07-09,,,,,7349,Linked to 146.940 in North Platte and 442.250 south of North Platte,,,,,,Sun at 19:30. Wed at 20:00.,,,,,,,,,,,,,,,,,,,,,,,,,,,,,,,,,,,,,,,,,,,,,,,,,,,,
443.7,5,162.2,N0NM,"Hill City, K-Link",KS,OPEN,A,,130.27,ESE,,20,11236,39.2657,-99.8336,443.7,448.7,162.2,Graham,On-Air,Click for coverage map. 45 mi radius.,"N0NM, N0KOM",,Kansas Repeater Council,2019-05-06,,,,E-power.,,Use PL 131.8 for WesKan Intertie Use PL 162.2 for K-Link,,,Western Kansas Inter-Tie K-Link Repeater Network,K-Link Repeater Network,46425,,,,,,,,,Linkable to the K-Link System . Linkable to the Western Kansas Intertie System .,,,,,,,,,,,,,,,,,,,,,,,,,,,,,,,,,,,,,,,,,,,,
445.075,-5,CC,K0PRA,Parker,CO,OPEN,,D,130.37,W,,08,17292,39.4491,-104.703,445.075,440.075,,Douglas,On-Air,,Parker Radio Association,,CCARC,2018-09-10,,,,Brandmeister Network https://brandmeister.network/?page=repeater&amp;id=310844,,Mixed Mode,,,,http://www.parkerradio.org,,Mondays 20:30 MST,yes,1,,,,,310844,,,,,,,,,,,,,,,,,,,,,,,,,,,,,,,,,,,,,,,,,,,,,
443.575,5,162.2,K0HAM,"Ransom, K-Link",KS,OPEN,,,131.01,SE,,20,4075,38.631,-99.99,443.575,448.575,162.2,Ness,On-Air,Click for coverage map. 40 mi radius.,N7JYS,,Kansas Repeater Council,2019-08-02,,,,,,,162.2,,K-Link Repeater Network,K-Link Repeater Network,,K-Link: Saturdays 21:00 local,,,,,,,,"Full-time to 442.45000 (N7JYS) at Hays, K-Link, KS . Full-time to the K-Link System .",,,,,,,Listen Live,,,,,,,,,,,,,,,,,,,,,,,,,,,,,,,,,,,,,
448.95,-5,,,Black Forest,CO,OPEN,,SY,131.47,W,,08,17551,39.0485,-104.701,448.95,443.95,,El Paso,,This repeater covers most of Black Forest and various areas of Monument and Colorado Springs,N0PKT,,,2019-01-08,yes,Open ↑ / Open ↓,,e-power,,,,Unknown,K0JSC,http://www.k0jsc.com,,Primarily on NXDN: All Nets carried on the K0JSC.COM Fun Machine system,,,,,,,,,,,,,,,,,,,yes,(B) Repeater,jfindu lookup / dstar-users lookup,yes,1,6.25,yes,,,,,,,,,,,,,,,,,,,,,,,,,,,
147.09,0.6,118.8,KZ0DEM,Springfield,CO,OPEN,,,132.46,S,,08,8174,37.4083,-102.614,147.09,147.69,118.8,Baca,,,BCDEARC,,CCARC,2012-11-12,,,,,,,118.8,Unknown,,,,,,,,,,,,,,,,,,,,,,,,,,,,,,,,,,,,,,,,,,,,,,,,,,,,,,,,
147.33,0.6,118.8,KZ0DEM,Springfield,CO,OPEN,EI,,132.46,S,Node Offline,08,6093,37.4083,-102.614,147.33,147.93,118.8,Baca,Off-Air,,Baca County Amateur Emergency Management,97142,CCARC,2018-03-12,,,,,7142,,118.8,,,KZ0DEM Repeaters,,,,,,,,,,,,,,,,,,,,,,,,,,,,,,,,,,,,,,,,,,,,,,,,,,,,,,
449.2,-5,118.8,KZ0DEM,Springfield,CO,OPEN,EI,,132.46,S,Node Offline,08,4588,37.4083,-102.614,449.2,444.2,118.8,Baca,On-Air,provides coverage to central Baca County,Baca County Div of Emerg Mgt Communications,97142,,2011-08-21,,,,,7142,,118.8,,,,,,,,,,,,,,55,,,,,,,,,,,,,,,,,,,,,,,,,,,,,,,,,,,,,,,,,,,
145.4,-0.6,100,KB0UDD,"Aurora, Smoky Hill",CO,OPEN,,,133.51,W,,08,5,39.6073,-104.741,145.4,144.8,100,Arapahoe,On-Air,Greater Denver area.,Castle Rock Repeater Group,,CCARC,2019-03-09,,,,"Autopatch, e-power.",,,,,,,,,,,,,,,,"Full-time to 448.50000 (KB0UDD) at Aurora, Smokey Hill, CO .",,,,,,,,,,,,,,,,,,,,,,,,,,,,,,,,,,,,,,,,,,,,
446.7625,-5,CC,,Vilas,CO,OPEN,,D,133.8,S,,08,17522,37.3747,-102.447,446.7625,441.7625,,Baca,,Baca County,Southeast Colorado REACT,,,2018-12-27,,,,,,,,Unknown,,,,,yes,7,,,,,,,,,,,,,,,,,,,,,,,,,,,,,,,,,,,,,,,,,,,,,,,,,,
446.9,-5,,K0PRA,Parker,CO,OPEN,W,Y,133.84,W,,08,18248,39.51860046,-104.76100159,446.9,441.9,,Arapahoe,On-Air,Small coverage area in Parker,Parker Radio Association,,,2019-11-03,yes,Open ↑ / Open ↓,40895,Linked to the Colorado Mega digital system,,,,,,https://www.parkerradio.org,,Monday nights 8pm mountain,,,,,,,,,,,,,,,,,,,,,,,,,,,,,,,,,,,,,,,,,,,,,,,,,,,,
448.05,-5,CC,N0KEG,Parker,CO,OPEN,,D,133.84,W,,08,17696,39.5186,-104.761,448.05,443.05,,Douglas,,,,,,2019-03-20,,,,,,,,Unknown,,,,,yes,1,BrandMeister,,,,310374,,,,,,,,,,,,,,,,,,,Brandmeister,,,,,,,,,,,,,,,,,,,,,,,,,,
145.19,-0.6,151.4,N0OBA,Aurora,CO,OPEN,E,,134.62,W,ON - IDLE,08,8741,39.628,-104.758,145.19,144.59,151.4,Arapahoe,On-Air,"Aurora, Littleton, Denver, Morrison, North Colorado Springs to as far as Ft. Collins.",N0OBA,10079,,2018-02-01,,,,Autopatch (please contact trustee).,,"Please note the PL's! Do not TSQ unless your radio can do split PL's. Otherwise you will not here the system. Regards, Scott",131.8,,,,,"""Tri Lakes Net"" This net is held every Monday at 7:30pm local (except on the third Monday of the month when we have our regular radio club meeting.)",,,,,,,,,,,,,,,,,,,,,,,,,,,,,,,,,,,,,,,,,,,,,,,,,,,,
449.925,-5,114.8,K0EB,Hudson,CO,OPEN,EI,,135.52,WNW,Node Offline,08,8216,40.0202,-104.642,449.925,444.925,114.8,Weld,On-Air,,K0EB,448035,CCARC,2018-12-01,,,,,8035,,114.8,,K0UPS Club,,,,,,,,,,,,,,,DN70,,,,,,,,,,,,,,,,,,,,,,,,,,,,,,,,,,,,,,,,
448.7,-5,146.2,WQ8M,Parker,CO,OPEN,,,135.87,W,,08,274,39.558,-104.794,448.7,443.7,146.2,Douglas,On-Air,Local North Parker only,,,,2018-09-07,,,,,,,,,,,,,,,,,,,,,,,,,,,,,,,,,,,,,,,,,,,,,,,,,,,,,,,,,,,,,,,,
448.15,-5,141.3,WE0FUN,"Denver, Green Valley Ranch",CO,OPEN,EA,,136.35,WNW,Node Offline,08,9765,39.7967,-104.748,448.15,443.15,141.3,Denver,On-Air,Small coverage of the East Denver area SW of DIA. Repeater Coverage Map,K0GUR,24340,CCARC,2019-08-22,,,,E-power (batt). 2 meter and 70cm channel steerable remote bases.,,Can be linked to various local repeater systems via the remote base(s). Echolink connects restricted. Email me to be added to the authorized list. The system may be occupied in the Southern Colorado area for a formal net or ARES activity.,141.3,,,k0jsc.com,29436,APRS Net: Sun at 19:00. Region 5 District 2 ARES Net: Sun at 19:30. Statewide ARES Net: Sun at 20:00. Region 5 District 1 ARES Net: Mon at 19:00. RGARC Net: Wed at 19:00.,,,,,,,,Full-time to the The Fun Machine System .,,,,DM79pt,,,Listen Live,,,,,,,,,,,,,,,,,,,,,,,,,,,,,,,,,,,,,
146.85,-0.6,156.7,AD0TP,Colorado Springs,CO,OPEN,,,136.61,WSW,,08,42,38.8381,-104.821,146.85,146.25,156.7,El Paso,On-Air,,AD0TP,,CCARC,2019-02-17,,,,,,Please email with comments/signal reports,103.5,,Village 7 Amateur Radio Club,http://www.v7arc.com/,,,,,,,,,,,,,,,,,,,,,,,,,,,,,,,,,,,,,,,,,,,,,,,,,,,,,,
448.8,-5,100,KB0SRJ,"Colorado Springs, ~2 mi ENE USAFA North Gate",CO,OPEN,,,136.86,W,,08,57,39.0302,-104.799,448.8,443.8,100,El Paso,On-Air,I-25 corridor from Baptist Rd south to Fort Carson,Pikes Peak FM Association (http://PPFMA.ORG),,CCARC,2019-09-24,,,,,,,,,,PPFMA Repeaters,,,,,,,,,,,,,,,,,,,,,,,,,,,,,,,,,,,,,,,,,,,,,,,,,,,,,,
146.64,-0.6,100,KZ0DEM,"Pritchett, Tator Butte",CO,OPEN,,,137.55,SSW,,08,3792,37.37,-102.859,146.64,146.04,100,Las Animas,Off-Air,Wide area: West BACA and East Las Animas counties.,,,CCARC,2015-12-12,,,,,,,100,,,KZ0DEM Repeaters,,,,,,,,,,,,,,,,,,,,,,,,,,,,,,,,,,,,,,,,,,,,,,,,,,,,,,
447.525,-5,203.5,N0ESQ,"Parker, Hess Reservoir",CO,OPEN,,,137.67,W,,08,8189,39.4942,-104.836,447.525,442.525,203.5,Douglas,On-Air,"Denver metropolitan area, front range foothills",EmComm Colorado,,CCARC,2017-03-11,,,,,,"Not a ragchew machine. Traffic related to ARES, RACES and administrative and exercise traffic related thereto.",146.2,,Colorado ARES,,,,,,,,,,,,,,,,,,,,,,,,,,,,,,,,,,,,,,,,,,,,,,,,,,,,,,,
449.15,-5,136.5,WR0AEN,Aurora,CO,OPEN,,S,138.13,WNW,,08,8207,39.6967,-104.81,449.15,444.15,,Arapahoe,On-Air,,Colorado Amateur Repeater Network (CARN),,CCARC,2012-11-12,,,,,,,,,,,,,,,,,,,,,,,,,,,,,,,yes,WR0AEN (B),jfindu lookup / dstar-users lookup,,,,,,,,,,,,,,,,,,,,,,,,,,,,,,,
224.26,-1.6,88.5,ND0Q,"Pueblo, Baculite Mesa",CO,OPEN,,,138.26,WSW,,08,195,38.3925,-104.555,224.26,222.66,88.5,Pueblo,Off-Air,Wide area.,Pueblo Ham Club,,CCARC,2013-05-07,,,,E-power.,,,CSQ,,,PHC repeaters,,,,,,,,,,,,,,,,,,,,,,,,,,,,,,,,,,,,,,,,,,,,,,,,,,,,,,
224.72,-1.6,103.5,W0MOG,Colorado springs,CO,OPEN,,,138.58,W,,08,15989,38.9,-104.8,224.72,223.12,103.5,El Paso,On-Air,Local,w0mog,,,2017-04-07,,,,,,,103.5,,,,,,,,,,,,,,,,,,,,,,,,,,,,,,,,,,,,,,,,,,,,,,,,,,,,,,,,,
447.625,-5,100,KE0SJ,Lochbuie,CO,OPEN,,,138.89,WNW,,08,9771,40.0072,-104.716,447.625,442.625,100,Adams,On-Air,Local/North Metro,Intermountain Repeater Group,,,2015-05-23,,,,,,,,,,Intermountain Repeater Group,,,,,,,,,,,,,,,,,,,,,,,,,,,,,,,,,,,,,,,,,,,,,,,,,,,,,,
146.79,-0.6,88.5,ND0Q,"Pueblo, Baculite Mesa",CO,OPEN,,,139.48,WSW,,08,193,38.3925,-104.555,146.79,146.19,88.5,Pueblo,On-Air,Wide area.,Pueblo HC,,CCARC,2018-11-16,,,,E-power.,,,CSQ,,,Pueblo Ham Club,,,,,,,,,,,,,,,,,,,,,,,,,,,,,,,,,,,,,,,,,,,,,,,,,,,,,,
447.95,-5,CC 88.5,ND0Q,Pueblo,CO,OPEN,,D,139.48,WSW,,08,198,38.3925,-104.555,447.95,442.95,88.5,Pueblo,On-Air,Wide area.,Pueblo Ham Club,,CCARC,2015-08-06,,,,E-power.,,Dual Mode Analog/DMR DMR is unlinked/stand alone for ARES.,,,,Pueblo Ham Club,,,,,,,,,,,,,,,,,,,,,,,,,,,,,,,,,,,,,,,,,,,,,,,,,,,,,,
147.135,0.6,100,AA0L,Colorado Springs,CO,OPEN,,,139.54,WSW,,08,8176,38.8397,-104.8,147.135,147.735,100,El Paso,On-Air,,AA0L,,CCARC,2016-04-08,,,,6,,,,,,,,,,,,,,,,,,,,,,,,,,,,,,,,,,,,,,,,,,,,,,,,,,,,,,,,,,,,
448.5,-5,100,KB0UDD,"Aurora, Smokey Hill",CO,OPEN,,,139.66,WNW,,08,92,39.7294,-104.831,448.5,443.5,100,Denver,On-Air,Greater Denver area.,Castle Rock Repeater Group,,CCARC,2017-03-11,,,,E-power.,,,,,,,,,,,,,,,,"Full-time to 145.40000 (KB0UDD) at Aurora, Smoky Hill, CO .",,,,,,,,,,,,,,,,,,,,,,,,,,,,,,,,,,,,,,,,,,,,
448.4,-5,94.8,N0ZUQ,Aurora,CO,OPEN,,,139.71,WNW,,08,8202,39.7294,-104.832,448.4,443.4,94.8,Arapahoe,On-Air,,,,CCARC,2012-11-12,,,,,,,,,,,,,,,,,,,,,,,,,,,,,,,,,,,,,,,,,,,,,,,,,,,,,,,,,,,,,,,,
448.275,-5,156.7,W0BG,Aurora,CO,OPEN,,,139.71,WNW,,08,8199,39.7294,-104.832,448.275,443.275,156.7,Arapahoe,On-Air,,W0BG,,CCARC,2013-01-05,,,,,,,,,,,,,,,,,,,,,,,,,,,,,,,,,,,,,,,,,,,,,,,,,,,,,,,,,,,,,,,,
449.95,-5,77,W9SL,Aurora,CO,OPEN,,,139.71,WNW,,08,8743,39.7294,-104.832,449.95,444.95,77,Arapahoe,On-Air,Primarily to the North along I-25 corridor,W9SL Owner,,CCARC,2019-08-23,,,,,,,77,,,,,,,,,,,,,,,,,,,,,,,,,,,,,,,,,,,,,,,,,,,,,,,,,,,,,,,,,
448.825,-5,,WN7ANT,Aurora,CO,OPEN,W,Y,139.71,WNW,,08,16032,39.7294,-104.832,448.825,443.825,,Arapahoe,On-Air,,,,,2017-12-13,yes,Open ↑ / Open ↓,30584,,,,,,,,,,,,,,,,,,,,,,,,,,,,,,,,,,,,,,,,,,,,,,,,,,,,,,,,,,,,,
447.725,-5,100,K0NR,"Monument, Monument Hill",CO,OPEN,,,140.16,W,,08,183,39.0917,-104.872,447.725,442.725,100,El Paso,On-Air,Local.,K0NR,,CCARC,2016-12-10,,,,30,,,100,,,http://www.k0nr.com/wordpress/k0nr-repeater/,,,,,,,,,,,,,,,,,,,,,,,,,,,,,,,,,,,,,,,,,,,,,,,,,,,,,,
147.315,0.6,CC,N0KEG,Centennial,CO,OPEN,,DS,140.45,W,,08,17676,39.5807,-104.877,147.315,147.915,,Arapahoe,,"Southeast metro Denver area. Parker, Centennial, SE Aurora, Elizabeth, Franktown, Castle Rock.",N0KEG,,,2019-03-21,,,,,,,,Unknown,Parker Radio Association,https://www.parkerradio.org,,Monday 8pm. Colorado Link Digital Net. Repeater is used in DSTAR mode for this net.,yes,1,,,,,,,,,,,,,,,,,yes,N0KEG (C) Repeater,jfindu lookup / dstar-users lookup,,,,,,,,,,,,,,,,,,,,,,,,,,,,,,,
147.27,0.6,,,Colorado Springs,CO,OPEN,,,140.66,WSW,,08,46,38.8381,-104.821,147.27,147.87,,El Paso,On-Air,,TRA,,,2016-08-10,,,,E-power.,,,,,,,,,,,,,,,,,,,,,,,,,,,,,,,,,,,,,,,,,,,,,,,,,,,,,,,,,,,,
146.91,-0.6,151.4,K0IRP,Colorado Springs,CO,OPEN,,,140.66,WSW,,08,43,38.8381,-104.821,146.91,146.31,151.4,El Paso,On-Air,,GGARC,,CCARC,2016-08-10,,,,E-power.,,,151.4,,,,,,,,,,,,,,,,,,,,,,,,,,,,,,,,,,,,,,,,,,,,,,,,,,,,,,,,,
147.39,0.6,103.5,W0MOG,Colorado Springs,CO,OPEN,,,140.66,WSW,,08,48,38.8381,-104.821,147.39,147.99,103.5,El Paso,On-Air,,W0MOG,,CCARC,2016-08-10,,,,,,,,,,,,,,,,,,,,,,,,,,,,,,,,,,,,,,,,,,,,,,,,,,,,,,,,,,,,,,,,
449.575,-5,,,Colorado Springs,CO,CLOSED,,,140.73,WSW,,08,8211,38.8339,-104.821,449.575,444.575,,El Paso,On-Air,,RMHARC,,CCARC,2016-08-10,,,,,,,,,,,,,,,,,,,,,,,,,,,,,,,,,,,,,,,,,,,,,,,,,,,,,,,,,,,,,,,,
448.3,-5,100,AA0L,Colorado Springs,CO,OPEN,,,140.73,WSW,,08,8200,38.8339,-104.821,448.3,443.3,100,El Paso,On-Air,,AA0L,,CCARC,2016-08-10,,,,,,,,,,,,,,,,,,,,,,,,,,,,,,,,,,,,,,,,,,,,,,,,,,,,,,,,,,,,,,,,
447.35,-5,151.4,K0IRP,Colorado Springs,CO,OPEN,,,140.73,WSW,,08,50,38.8339,-104.821,447.35,442.35,151.4,El Paso,On-Air,,GGARC,,CCARC,2015-03-04,,,,E-power.,,,,,,,,,,,,,,,,,,,,,,,,,,,,,,,,,,,,,,,,,,,,,,,,,,,,,,,,,,,,
224.06,-1.6,,KB0SRJ,Colorado Springs,CO,CLOSED,,,140.73,WSW,,08,8182,38.8339,-104.821,224.06,222.46,,El Paso,,Wide area.,Pikes Peak FM Association (PPFMA),,CCARC,2012-11-12,,,,"E-power, linked.",,,,Unknown,,,,,,,,,,,,,,,,,,,,,,,,,,,,,,,,,,,,,,,,,,,,,,,,,,,,,,,,
447.025,-5,123,KF0WF,Colorado Springs,CO,OPEN,,,140.73,WSW,,08,49,38.8339,-104.821,447.025,442.025,123,El Paso,Off-Air,,Colorado Springs ARA,,CCARC,2016-08-10,,,,"Closed autopatch, e-power, linked, remote base.",,,,,,,,,,,,,,,,,,,,,,,,,,,,,,,,,,,,,,,,,,,,,,,,,,,,,,,,,,,,
448.25,-5,123,N0KG,"Colorado Springs, Broadmoor Area",CO,OPEN,,,140.73,WSW,,08,8198,38.8339,-104.821,448.25,443.25,123,El Paso,Off-Air,Colorado Springs,,,CCARC,2018-09-25,,,,,,,,,,,,,,,,,,,,,,,,,,,,,,,,,,,,,,,,,,,,,,,,,,,,,,,,,,,,,,,,
447.475,-5,107.2,NX0G,Colorado Springs,CO,OPEN,,,140.73,WSW,,08,51,38.8339,-104.821,447.475,442.475,107.2,El Paso,,,Mountain ARC (MARC),,CCARC,2012-11-10,,,,"Closed autopatch, e-power.",,,,Unknown,,,,MARC/PCRC: Tue at 1930.,,,,,,,,"Full-time to 146.68500 (NX0G) at Lake George, Badger Mountain, CO . Full-time to 146.82000 (NX0G) at Woodland Park, CO . Full-time to 448.65000 (NX0G) at Woodland Park, CO . Full-time to 147.01500 (NX0G) at Cripple Creek, CO .",,,,,,,,,,,,,,,,,,,,,,,,,,,,,,,,,,,,,,,,,,,,
448.6,-5,114.8,W0MOG,Colorado Springs,CO,OPEN,,,140.73,WSW,,08,55,38.8339,-104.821,448.6,443.6,114.8,El Paso,,,W0MOG,,CCARC,2012-11-10,,,,,,,,Unknown,,,,,,,,,,,,"Full-time to 927.80000 (W0MOG) at Colorado Springs, CO .",,,,,,,,,,,,,,,,,,,,,,,,,,,,,,,,,,,,,,,,,,,,
927.8,-25,D116,W0MOG,Colorado Springs,CO,OPEN,,,140.73,WSW,,08,3537,38.8339,-104.821,927.8,902.8,D116,Teller,On-Air,,,,CCARC,2012-11-10,,,,6,,,,,,,,,,,,,,,,"Full-time to 448.60000 (W0MOG) at Colorado Springs, CO .",,,,,,,,,,,,,,,,,,,,,,,,,,,,,,,,,,,,,,,,,,,,
447.55,-5,123,WA6IFI,Colorado Springs,CO,OPEN,,,140.73,WSW,,08,8191,38.8339,-104.821,447.55,442.55,123,El Paso,On-Air,,WA6IFI,,CCARC,2015-11-13,,,,,,,,,,,,,,,,,,,,,,,,,,,,,,,,,,,,,,,,,,,,,,,,,,,,,,,,,,,,,,,,
444.525,5,141.3,K0ECT,"Ulysses, Wagon Bed Springs",KS,OPEN,,,140.94,SSE,,20,4110,37.403,-101.333,444.525,449.525,141.3,Grant,On-Air,,SKECT,,Kansas Repeater Council,2019-05-07,,,,E-power.,,,141.3,,,http://skect.org/default.aspx,,,,,,,,,,Full-time to the SKECT System .,,,,,,,,,,,,,,,,,,,,,,,,,,,,,,,,,,,,,,,,,,,,
145.19,-0.6,131.8,N0XLF,"Palmer Lake, Monument Hill",CO,OPEN,E,,142.76,W,ON - IDLE,08,8740,39.136,-104.927,145.19,144.59,131.8,Douglas,On-Air,Wide area coverage at 8300,N0OBA Owner,10079,,2018-10-25,,,,,,,131.8,,,,,Tri Lakes Net: Mon at 19:30 (except third Monday of the month which is the regular radio club meeting).,,,,,,,,,,,,,,,,,,,,,,,,,,,,,,,,,,,,,,,,,,,,,,,,,,,,
447.3,-5,107.2,AC0KC,Fort Lupton,CO,OPEN,EI,,143,WNW,Node Offline,08,8739,40.0276,-104.789,447.3,442.3,107.2,Weld,On-Air,,,405804,CCARC,2013-01-07,,,,,3887,,,,,,,,,,,,,,,,,,,,,,,,,,,,,,,,,,,,,,,,,,,,,,,,,,,,,,,,,,,
448.725,-5,123,KA0TTF,"Colorado Springs, Fillmore Hill",CO,OPEN,,,143.2,WSW,,08,56,38.78,-104.85,448.725,443.725,123,El Paso,On-Air,,KA0TTF,,CCARC,2016-04-19,,,,,,,,,,,,,,,,,,,,,,,,,,,,,,,,,,,,,,,,,,,,,,,,,,,,,,,,,,,,,,,,
147,0.6,,NE0Z,"Pueblo, CSU",CO,PRIVATE,,,144.19,WSW,,08,8173,38.3069,-104.62,147,147.6,,Pueblo,On-Air,,Carl Higbee,,CCARC,2014-02-26,,,,,,,,,,,,,,,,,,,,,,,,,,,,,,,,,,,,,,,,,,,,,,,,,,,,,,,,,,,,,,,,
145.13,-0.6,88.5,KB0VJJ,"Colorado Springs, Cheyenne Mountain",CO,OPEN,,,144.48,WSW,,08,37,38.7452,-104.862,145.13,144.53,88.5,El Paso,On-Air,Wide area: South toward Pueblo and north to Monument. Decent coverage to the east. Little coverage to the west.,Colorado Connection,,CCARC,2016-04-03,,,,9,,Linked into the Colorado Connection System,123,,,,,Colorado Traffic Net: Daily at 19:00. Colorado Connection Net (all welcome): Thu at 20:00. Statewide ARES: Sun at 20:00. Colorado Preparedness Net: Sat at 09:30,,,,,,,,Full-time to the Colorado Connection System .,,,,,,,Listen Live,,,,,,,,,,,,,,,,,,,,,,,,,,,,,,,,,,,,,
446.9125,-5,,KC0CVU,"Colorado Springs, Cheyenne Mountain",CO,OPEN,,S,144.48,WSW,,08,8087,38.7451,-104.862,446.9125,441.9125,,El Paso,Off-Air,,Cheyenne Mountain Repeater Group (CMRG),,,2019-01-08,,,,,,This DStar repeater is up but not truly functional. It serves as a local repeater presently as it is not connected to the internet for now.,,,,,,,,,,,,,,,,,,,,,,,,,yes,KC0CVU (B) Repeater,jfindu lookup / dstar-users lookup,,,,,,,,,,,,,,,,,,,,,,,,,,,,,,,
927.85,-25,D114,KC0CVU,"Colorado Springs, Cheyenne Mountain",CO,OPEN,,,144.48,WSW,,08,7171,38.745,-104.862,927.85,902.85,D114,Teller,On-Air,,CMRG,,CCARC,2017-03-09,,,,9,,,,,,http://www.cmrg.org,,,,,,,,,,"Full-time to 147.34500 (KC0CVU) at Colorado Springs, Cheyenne Mountain, CO . Full-time to 448.10000 (KC0CVU) at Colorado Springs, Cheyenne Mountain, CO .",,,,,,,,,,,,,,,,,,,,,,,,,,,,,,,,,,,,,,,,,,,,
445.0625,-5,CC,N0SZ,"Colorado Springs, Cheyenne Mountain",CO,OPEN,,D,144.48,WSW,,08,12355,38.7451,-104.862,445.0625,440.0625,,El Paso,On-Air,,Rocky Mountain Ham Radio,,CCARC,2019-02-10,,,,Rocky Mountain Ham Radio Brandmeister Sites,,"This machine sits atop Cheyenne Mountain overlooking Colorado Springs and Pueblo. The talkgroups that are setup on this system are the Fun Machine Analog transcoded and statically linked on TS1 as TG310815. At this time TS2 will carry TG3108 statically and the following are all PTTable with a 15 minute activity timeout (310,31079,31080,31082,31083,31084,31085,31086,31088,311,312,31200,31203,313,31327,314,3140,31400,31408, 3148,315,31563,316,31600,31601,31602,31603,31604,31605,31606,31607,31608,31609,31623,31648,31652,317,318,319,3740,91,9112,93). No other TGs are PTTable from this system unless they are enabled. If you have a specific TG that would would like added to TS2 as a PTT TG please let me know and I will consider adding it.",,,N0SZ Colorado Springs Brandmeister,,,,yes,1,,"Open Talkgroup View Assignment TS TG Access TAC 310 2 310 PTT TAC 311 2 311 PTT Colorado 2 3108 Full-Time Colorado Chat 2 31080 PTT function myFunction(id) { var x = document.getElementById(id); if (x.className.indexOf(""w3-show"") == -1) { x.className += "" w3-show""; } else { x.className = x.className.replace("" w3-show"", """"); } }",,,310857,,,,,,,,,,,,,,,,,,,,2,2,2,2,,,,,,,,,,,,,,,,,,,,,,
53.13,-1.7,107.2,WA6IFI,"Colorado Springs, Cheyenne Mountain",CO,OPEN,,,144.48,WSW,,08,8158,38.745,-104.862,53.13,51.43,107.2,El Paso,On-Air,,Cheyenne Mountain Repeater Group (CMRG),,CCARC,2017-03-09,,,,,,,107.2,,,http://www.cmrg.org,,,,,,,,,,,,,,,,,,,,,,,,,,,,,,,,,,,,,,,,,,,,,,,,,,,,,,
145.385,-0.6,,KC0CVU,"Colorado Springs, Cheyenne Mountain",CO,OPEN,,S,144.49,WSW,,08,8088,38.7445,-104.862,145.375,144.77,,El Paso,Off-Air,wide area,Cheyenne Mountain Repeater Group (CMRG),,CCARC,2018-07-15,,,,,,Repeater off air for now.,,,,http://www.cmrg.org,,,,,,,,,,,,,,,,,,,,,yes,KC0CVU (C) Repeater,jfindu lookup / dstar-users lookup,,,,,,,,,,,,,,,,,,,,,,,,,,,,,,,
147,0.6,100,KC0KWD,LaSalle,CO,OPEN,I,Y,145.25,WNW,,08,157,40.2612,-104.706,147,147.6,,Weld,On-Air,,Weld ARS,,CCARC,2019-05-06,yes,Open ↑ / Open ↓,,"Yaesu System Fusion, 20 Watts. Will be switching to DSQ on 1 Feb 2016.",3839,,,,,,,Tuesday Night club net,,,,,,,,,,,,,,,,,,,,,,,,,,,,,,,,,,,,,,,,,,,,,,,,,,,,
448.475,-5,100,KC0KWD,Greeley,CO,OPEN,I,,145.25,WNW,,08,158,40.2612,-104.706,448.475,443.475,100,Weld,On-Air,,Weld Amateur Radio Society (WARS),,CCARC,2019-05-06,,,,,3839,,,,,http://www.warsco.org/,,,,,,,,,,,,,,,,,,,,,,,,,,,,,,,,,,,,,,,,,,,,,,,,,,,,,,
146.655,-0.6,123,K0ST,"Pueblo, Pueblo",CO,OPEN,,,145.49,WSW,,08,192,38.2544,-104.609,146.655,146.055,123,Pueblo,On-Air,,K0ST,,CCARC,2013-05-07,,,,,,,CSQ,,,,,,,,,,,,,,,,,,,,,,,,,,,,,,,,,,,,,,,,,,,,,,,,,,,,,,,,,
447.7,-5,CC 210.7,KF0KR,"Pueblo, Pueblo",CO,PRIVATE,IA,D,145.49,WSW,,08,8530,38.2544,-104.609,447.7,442.7,210.7,Pueblo,Off-Air,,,,CCARC,2017-01-02,,,,,7389,,210.7,,,,29228,,yes,0,,,,,,,,,,,Yes; analog capable.,,,,,,,,,,,,,,,,,,,,,,,,,,,,,,,,,,,,,,,
449.725,-5,100,N0PWZ,Palmer Divide,CO,OPEN,I,,145.49,WSW,,08,189,38.2544,-104.609,449.725,444.725,100,El Paso,On-Air,,N0PWZ,,CCARC,2012-11-10,,,,,3043,,,,,,,,,,,,,,,,,,,,,,,,,,,,,,,,,,,,,,,,,,,,,,,,,,,,,,,,,,,
224.96,-1.6,CSQ,AC0KC,Fort Lupton,CO,OPEN,,,145.56,WNW,,08,8183,40.0847,-104.813,224.96,223.36,CSQ,Weld,On-Air,,AC0KC,,CCARC,2012-11-12,,,,,,,,,,,,,,,,,,,,,,,,,,,,,,,,,,,,,,,,,,,,,,,,,,,,,,,,,,,,,,,,
147.345,0.6,107.2,KC0CVU,"Colorado Springs, Cheyenne Mountain",CO,OPEN,I,,145.57,WSW,,08,47,38.7372,-104.88,147.345,147.945,107.2,El Paso,On-Air,Wide area.,,,CCARC,2018-01-15,,,,"Closed autopatch, e-power.",3854,,107.2,,,http://www.cmrg.org/,,,,,,,,,,"Full-time to 927.85000 (KC0CVU) at Colorado Springs, Cheyenne Mountain, CO . Full-time to the Cheyenne Mtn Repeater Group System .",,,,,,,,,,,,,,,,,,,,,,,,,,,,,,,,,,,,,,,,,,,,
145.16,-0.6,107.2,W0CRA,"Colorado Springs, Cheyenne Mountain",CO,OPEN,EI,,145.57,WSW,ON - IDLE,08,38,38.7372,-104.88,145.16,144.56,107.2,El Paso,On-Air,"Wide area: Colorado Springs, Pueblo, and other areas of southeast and south central Colorado.",Colorado Repeater Association,347086,CCARC,2017-11-13,,,,"Closed autopatch, e-power.",3990,Switch to this repeater at mile marker 170 on I-25.,107.2,,CRA VHF Link System,http://www.w0cra.org/info/cosprgs.html#145160,,,,,,,,,,"Full-time to 145.46000 (W0CRA) at Boulder, Eldorado Mountain, CO . Full-time to 147.22500 (W0CRA) at Larkspur, Westcreek, CO .",,,,,,,,,,,,,,,,,,,,,,,,,,,,,,,,,,,,,,,,,,,,
146.76,-0.6,107.2,KC0CVU,"Colorado Springs, Cheyenne Mountain",CO,OPEN,,,145.62,WSW,,08,41,38.7372,-104.881,146.76,146.16,107.2,El Paso,On-Air,,Cheyenne Mountain Repeater Group,,CCARC,2018-01-15,,,,"Closed autopatch, e-power.",,,107.2,,,,,,,,,,,,,,,,,,,,,,,,,,,,,,,,,,,,,,,,,,,,,,,,,,,,,,,,,
448,-5,107.2,KC0CVU,"Colorado Springs, Cheyenne Mountain",CO,OPEN,,,145.62,WSW,,08,269,38.7372,-104.881,448,443,107.2,El Paso,On-Air,,,,CCARC,2018-01-15,,,,,,,,,,CMRG Repeaters,,,,,,,,,,,,,,,,,,,,,,,,,,,,,,,,,,,,,,,,,,,,,,,,,,,,,,
448.1,-5,107.2,KC0CVU,"Colorado Springs, Cheyenne Mountain",CO,OPEN,,,145.62,WSW,,08,53,38.7372,-104.881,448.1,443.1,107.2,El Paso,On-Air,Wide area.,,,CCARC,2018-01-15,,,,"Closed autopatch, e-power.",,,107.2,,,CMRG Repeaters,,,,,,,,,,"Full-time to 927.85000 (KC0CVU) at Colorado Springs, Cheyenne Mountain, CO .",,,,,,,,,,,,,,,,,,,,,,,,,,,,,,,,,,,,,,,,,,,,
444.475,5,CC,N0KOM,"Logan, KS-DMR",KS,OPEN,,D,145.67,ESE,,20,10023,39.664,-99.577,444.475,449.475,,Phillips,On-Air,40,,,Kansas Repeater Council,2019-04-11,,,,,,,,,,KS-DMR Network,,,yes,1,,,,,310597,Full-time to the KS-DMR (3120) System .,,,,,,,,,,,,,,,,,,K0USY,,,,,,,,,,,,,,,,,,,,,,,,,,
446.9875,-5,CC,K0JSC,Pueblo,CO,OPEN,,D,146.42,WSW,,08,10785,38.2307,-104.611,446.9875,441.9875,,Pueblo,Off-Air,,,,CCARC,2017-01-02,,,,,,,,,RMHAM,Rocky Mountain Ham Radio,,,yes,6,,"Open Talkgroup View Assignment TS TG Access Rocky Mountain Wide 1 700 Southern Colorado 2 719 function myFunction(id) { var x = document.getElementById(id); if (x.className.indexOf(""w3-show"") == -1) { x.className += "" w3-show""; } else { x.className = x.className.replace("" w3-show"", """"); } }",1,,,Full-time to the Colorado TRBO System .,,,,,,,,,,,,,,,,,,,,,,,2,,,,,,,,,,,,,,,,,,,,,
147.24,0.6,103.5,KJ0T,Pueblo,CO,OPEN,,,146.42,WSW,,08,3747,38.2306,-104.611,147.24,147.84,103.5,Pueblo,Off-Air,Pueblo and Fremont Counties,TARA,,CCARC,2012-06-13,,,,,,,CSQ,,,,,,,,,,,,,,,,,,,,,,,,,,,,,,,,,,,,,,,,,,,,,,,,,,,,,,,,,
447.275,-5,100,K0JSC,"Pueblo, Metro",CO,OPEN,,,146.43,WSW,,08,9527,38.2305,-104.611,447.275,442.275,100,Pueblo,On-Air,,,,CCARC,2017-01-06,,,,,,"Moved to Pueblo. Now called ""Pueblo Metro""",100,,The Fun Machine,The Fun Machine,,APRS Net: Sun at 19:00. Region 5 District 2 ARES Net: Sun at 19:30. Statewide ARES Net: Sun at 20:00. Region 5 District 1 ARES Net: Mon at 19:00. EOSS Net: Tue at 20:00. RGARC Net: Wed at 19:00.,,,,,,,,Full-time to the The Fun Machine System .,,,,,,,Listen Live,,,,,,,,,,,,,,,,,,,,,,,,,,,,,,,,,,,,,
145.265,-0.6,100,KB0SRJ,"Colorado Springs, ~2 mi ENE USAFA North Gate",CO,OPEN,,Y,147.35,WSW,,08,39,38.7,-104.9,145.265,144.665,,El Paso,On-Air,Local. Good coverage of I25 corridor from Baptist Rd south to Fort Carson.,Pikes Peak FM Association (http://PPFMA.ORG),,CCARC,2019-03-07,yes,Open ↑ / Open ↓,,,,,,,,PPFMA Repeaters,,,,,,,,,,,,,,,,,,,,,,,,,,,,,,,,,,,,,,,,,,,,,,,,,,,,,,
145.475,-0.6,100,KE0SJ,"Boulder, Blue Mountain",CO,OPEN,,,147.77,WNW,,08,75,39.7392,-104.984,145.475,144.875,100,Jefferson,On-Air,"Wide Area: Ft. Collins to the North, Colorado Springs to the South, Parts of Akron to the east.",Intermountain Repeater Group,,CCARC,2015-05-22,,,,E-power.,,,,,,Intermountain Repeater Group,,,,,,,,,,,,,,,,,,,,,,,,,,,,,,,,,,,,,,,,,,,,,,,,,,,,,,
146.715,-0.6,123,N0JXN,Denver,CO,OPEN,,,147.77,WNW,,08,79,39.7392,-104.984,146.715,146.115,123,Denver,On-Air,,EARS,,CCARC,2017-04-09,,,,E-power.,,,123,,,,,,,,,,,,,,,,,,,,,,,,,,,,,,,,,,,,,,,,,,,,,,,,,,,,,,,,,
448.075,-5,123,N5EHP,Denver,CO,OPEN,,,147.77,WNW,,08,91,39.7392,-104.984,448.075,443.075,123,Denver,On-Air,,W0IG,,CCARC,2017-03-11,,,,,,,,,,,,,,,,,,,,,,,,,,,,,,,,,,,,,,,,,,,,,,,,,,,,,,,,,,,,,,,,
448.55,-5,82.5,W0KIZ,Denver,CO,OPEN,,,147.77,WNW,,08,93,39.7392,-104.984,448.55,443.55,82.5,Denver,Off-Air,,HPRA,,CCARC,2017-03-11,,,,E-power.,,,,,,,,,,,,,,,,,,,,,,,,,,,,,,,,,,,,,,,,,,,,,,,,,,,,,,,,,,,,
447.925,-5,100,K0FEZ,Denver,CO,OPEN,,,147.8,WNW,,08,8196,39.7376,-104.985,447.925,442.925,100,Denver,On-Air,,RADOPS El Jebel Shriners,,CCARC,2014-07-03,,,,,,,100,,,,,,,,,,,,,,,,,,,,,,,,,,,,,,,,,,,,,,,,,,,,,,,,,,,,,,,,,
447.9,-5,CSQ,WB0TPT,Denver,CO,OPEN,,,147.8,WNW,,08,8195,39.7376,-104.985,447.9,442.9,CSQ,Denver,Off-Air,,WB0TPT,,CCARC,2017-03-11,,,,,,,,,,,,,,,,,,,,,,,,,,,,,,,,,,,,,,,,,,,,,,,,,,,,,,,,,,,,,,,,
449.65,-5,136.5,WR0AEN,Denver,CO,OPEN,,S,147.8,WNW,,08,8212,39.7376,-104.985,449.65,444.65,,Denver,On-Air,,Colorado Amateur Repeater Network (CARN),,CCARC,2012-11-16,,,,,,,,,,,,,,,,,,,,,,,,,,,,,,,yes,WR0AEN (B),jfindu lookup / dstar-users lookup,,,,,,,,,,,,,,,,,,,,,,,,,,,,,,,
449.675,-5,136.5,WR0AEN,Denver,CO,OPEN,I,S,147.8,WNW,,08,8213,39.7376,-104.985,449.675,444.675,,Denver,On-Air,,Colorado Amateur Repeater Network (CARN),,CCARC,2012-11-16,,,,,7708,,,,,,,,,,,,,,,,,,,,,,,,,,yes,WR0AEN (B),jfindu lookup / dstar-users lookup,,,,,,,,,,,,,,,,,,,,,,,,,,,,,,,
145.115,-0.6,88.5,ND0Q,Pueblo,CO,OPEN,,,148.05,WSW,,08,191,38.2544,-104.609,145.115,144.515,88.5,Pueblo,Off-Air,,Pueblo Ham Club,,CCARC,2012-11-12,,,,E-power.,,,,,,,,,,,,,,,,,,,,,,,,,,,,,,,,,,,,,,,,,,,,,,,,,,,,,,,,,,,,
447.175,-5,100,W0JRL,"Denver, Broadway Plaza Lofts",CO,OPEN,EA,,148.13,WNW,ON - IDLE,08,12216,39.7552,-104.987,447.175,442.175,100,Denver,On-Air,,W0JRL,201712,CCARC,2015-05-15,,,,,,,100,,,,29997,,,,,,,,,,Standard AllStar Link access commands.,,,,,,,,,,,,,,,,,,,,,,,,,,,,,,,,,,,,,,,,,,,
449.975,-5,100,K0JSC,"Larkspur, Westcreek",CO,OPEN,,,148.24,W,,08,15903,39.1749,-105.034,449.975,444.975,100,Douglas,On-Air,,K0JSC,,CCARC,2017-04-21,,,,Simulcast and Voted with Cedarwood and Methodist.,,"Can be linked to Allstar, Echolink and others by a Sysop",100,,The Fun Machine,The Fun Machine,,,,,,,,,,Full-time to the The Fun Machine System .,,,,,,,,,,,,,,,,,,,,,,,,,,,,,,,,,,,,,,,,,,,,
147.225,0.6,107.2,W0CRA,"Larkspur, Westcreek",CO,OPEN,EI,,148.24,W,ON - IDLE,08,83,39.1755,-105.034,147.225,147.825,107.2,Douglas,On-Air,Wide area,Colorado Repeater Association (CRA),347086,CCARC,2017-11-13,,,,Closed autopatch,3990,,107.2,,CRA VHF Link System,Colorado Repeater Association,,"CRA Net, Sunday 9AM",,,,,,,,"Full-time to 145.16000 (W0CRA) at Colorado Springs, Cheyenne Mountain, CO . Full-time to 145.46000 (W0CRA) at Boulder, Eldorado Mountain, CO .",,,,,,,,,,,,,,,,,,,,,,,,,,,,,,,,,,,,,,,,,,,,
448.425,-5,107.2,W0CRA,"Larkspur, Westcreek",CO,OPEN,,,148.24,W,,08,16547,39.1755,-105.034,448.425,443.425,107.2,Douglas,On-Air,Wide area,Colorado Repeater Association (CRA),,,2017-11-14,,,,,,,107.2,,ARESDEC,http://www.w0cra.org,,,,,,,,,,"Full-time to 147.10500 (WA0DE) at Simla, CO .",,,,,,,,,,,,,,,,,,,,,,,,,,,,,,,,,,,,,,,,,,,,
146.745,-0.6,,KD0AN,Edison,NE,OPEN,E,,148.35,E,ON - IDLE,31,12982,40.2771,-99.7767,146.745,146.145,,Furnas,On-Air,,,882742,WB0CMC,2017-01-15,,,,,,,,,,,,,,,,,,,,,,,,,,,,,,,,,,,,,,,,,,,,,,,,,,,,,,,,,,,,,,,,
449.975,-5,100,K0JSC,"Pueblo, Cedarwood",CO,OPEN,EIA,,148.55,SW,ON - IDLE,08,5369,38.034,-104.489,449.975,444.975,100,Pueblo,On-Air,I-25 from Walsenburg to Wyoming and US-50 from La junta to Monarch Pass Repeater Coverage Map,K0JSC,363976,CCARC,2017-03-11,,,,2,7301,Can be linked to various local repeater systems via the remote base. Echolink/IRLP connects restricted. Email me to be added to the authorized list.,100,,,K0JSC dot Com,28368,APRS Net: Sun at 19:00. Region 5 District 2 ARES Net: Sun at 19:30. Statewide ARES Net: Sun at 20:00. Region 5 District 1 ARES Net: Mon at 19:00. RGARC Net: Wed at 19:00.,,,,,,,,"Linkable to 145.49000 (WD0EKR) at Canon City, Fremont Peak, CO . Linkable to 145.46000 (WB0WDF) at Cripple Creek, CO . Linkable to 146.79000 (ND0Q) at Pueblo, Baculite Mesa, CO . Linkable to 145.13000 (KB0VJJ) at Colorado Springs, Cheyenne Mountain, CO . Linkable to 146.88000 (ND0Q) at Pueblo, Deer Peak, CO . Linkable to 145.16000 (W0CRA) at Colorado Springs, Cheyenne Mountain, CO . Full-time to the The Fun Machine System . 146.43000 simplex. 146.44500 simplex.",,,,DM78SA18,,,Listen Live,,,,,,,,,,,,,,,,,,,,,,,,,,,,,,,,,,,,,
146.835,-0.6,CSQ,K0KDC,North Platte,NE,OPEN,,,148.57,NNE,,31,44,41.1239,-100.765,146.835,146.235,CSQ,Lincoln,On-Air,,K0KDC,,,2019-05-05,,,,,,,,,,,,,,,,,,,,,,,,,,,,,,,,,,,,,,,,,,,,,,,,,,,,,,,,,,,,,,,,
146.7,-0.6,,NE0NP,North Platte,NE,OPEN,,,148.57,NNE,,31,43,41.1239,-100.765,146.7,146.1,,Lincoln,Off-Air,,North Platte Progressive Amateur Radio Club,,,2018-10-14,,,,E-power.,,,123,,,,,,,,,,,,,,,,,,,,,,,,,,,,,,,,,,,,,,,,,,,,,,,,,,,,,,,,,
146.85,-0.6,100,W0UPS,"Greeley, UNC",CO,OPEN,,,149.59,WNW,,08,156,40.4036,-104.7,146.85,146.25,100,Weld,On-Air,,Northern Colorado ARC,,CCARC,2017-05-08,,,,"E-power, WX.",,,100,,,,,,,,,,,,,,,,,,,,,,,,,,,,,,,,,,,,,,,,,,,,,,,,,,,,,,,,,
147.33,0.6,123,N0IQ,North Platte,NE,OPEN,EI,,149.66,NNE,Node Offline,31,11023,41.1403,-100.76,147.33,147.93,123,Lincoln,On-Air,,Randy Allen,857936,,2017-06-29,,,,,7627,,,,,,,,,,,,,,,,,,,,,,,,,,,,,,,,,,,,,,,,,,,,,,,,,,,,,,,,,,,
444.4,5,123,N0IQ,North Platte,NE,OPEN,EI,,149.66,NNE,Node Offline,31,11022,41.1403,-100.76,444.4,449.4,123,Lincoln,On-Air,Maxwell to Sutherland across I-80.,Randy Allen,857936,,2014-05-04,,,,,7627,,,,,,,,,,,,,,,,,,,,,,,,,,,,,,,,,,,,,,,,,,,,,,,,,,,,,,,,,,,
146.94,-0.6,123,N0UGO,North Platte,NE,OPEN,EI,,149.66,NNE,Node Offline,31,11026,41.1403,-100.76,146.94,146.34,123,Lincoln,On-Air,,Charlie Allen,751985,WB0CMC,2019-05-05,,,,Linked to 146.760 in Ogallala and 442.250 south of North Platte,7349,,,,,,,Sunday Night net: Sun at 20:30 Wednesday Night net: Wed at 21:00.,,,,,,,,,,,,,,,,,,,,,,,,,,,,,,,,,,,,,,,,,,,,,,,,,,,,
442.25,5,123,N0UGO,North Platte,NE,OPEN,EI,,149.66,NNE,Node Offline,31,11024,41.1403,-100.76,442.25,447.25,123,Lincoln,Off-Air,,Charlie Allen,751985,,2018-10-14,,,,,7349,Linked to 146.940 in North Platte and 146.760 in Ogallala.,,,,,,Sunt at 20:30 Wed at 21:00,,,,,,,,,,,,,,,,,,,,,,,,,,,,,,,,,,,,,,,,,,,,,,,,,,,,
448.975,-5,100,K0JSC,Pueblo West,CO,OPEN,EIA,,149.73,WSW,ON - IDLE,08,7994,38.303,-104.734,448.975,443.975,100,Pueblo,On-Air,,,363976,CCARC,2017-03-11,,,,,7301,Off air. Will return to service,100,,,http://www.k0jsc.com,28368,,,,,,,,,Full-time to the The Fun Machine System .,,,,,,,Listen Live,,,,,,,,,,,,,,,,,,,,,,,,,,,,,,,,,,,,,
449.725,-5,127.3,K0OJ,"Greeley, UNC",CO,OPEN,,,149.73,WNW,,08,159,40.4037,-104.703,449.725,444.725,127.3,Weld,On-Air,,K0OJ,,CCARC,2019-10-04,,,,"Autopatch, WX.",,,,,,,,,,,,,,,,,,,,,,,,,,,,,,,,,,,,,,,,,,,,,,,,,,,,,,,,,,,,
147.045,0.6,123,K0ML,Northglenn,CO,OPEN,,,150.15,WNW,,08,185,39.8856,-104.987,147.045,147.645,123,Adams,On-Air,,Northglenn RA,,CCARC,2017-04-10,,,,E-power.,,,CSQ,,,,,,,,,,,,,,,,,,,,,,,,,,,,,,,,,,,,,,,,,,,,,,,,,,,,,,,,,
449.325,-5,103.5,KA4EPS,"Woodland Park, Paradise Pines",CO,OPEN,A,,150.32,W,,08,9503,38.9878,-105.044,449.325,444.325,103.5,Teller,On-Air,"Small coverage repeater node covering Woodland Park, CO when not linked. When linked to the Florida hub, coverage from Key West to Melbourne, Florida can be expected.",KA4EPS,,CCARC,2019-04-01,,,,E-power. Allstar Node 27976,,Node # 27976,103.5,,Amateur Radio Motorcycle Club,http://www.ka4eps.com,27976,Sunday 1900 MST Tuesday 1900 MST,,,,,,,,,,,,,,,,,,,,,,,,,,,,,,,,,,,,,,,,,,,,,,,,,,,,
445.1375,-5,CC,KB0VGD,Greeley,CO,OPEN,,D,150.68,WNW,,08,18521,40.42331314,-104.70912933,445.1375,440.1375,,Weld,On-Air,,,,,2020-02-17,,,,,,,,,,,,,yes,2,,,,,,,,c Record retrieved from radioid.net,,,,,,,,,,,,,,,,,,,,,,,,,,,,,,,,,,,,,,,,,,
449.325,-5,136.5,WR0AEN,Greeley,CO,OPEN,,S,150.68,WNW,,08,8210,40.4233,-104.709,449.325,444.325,,Weld,On-Air,,Colorado Amateur Repeater Network (CARN),,CCARC,2012-11-12,,,,,,,,,,,,,,,,,,,,,,,,,,,,,,,yes,WR0AEN (B),jfindu lookup / dstar-users lookup,,,,,,,,,,,,,,,,,,,,,,,,,,,,,,,
446.95,-5,CC,K7PFJ,"Colorado Springs, Almagre Mountain",CO,OPEN,,D,150.76,WSW,,08,5220,38.7726,-104.993,446.95,441.95,,Teller,On-Air,Monument Hill through Pueblo.,Rocky Mountain Ham Radio,,,2017-03-11,,,,,,,,,RMHAM,,,,yes,7,,"Open Talkgroup View Assignment TS TG Access Rocky Mountain Wide 1 700 Southern Colorado 2 719 function myFunction(id) { var x = document.getElementById(id); if (x.className.indexOf(""w3-show"") == -1) { x.className += "" w3-show""; } else { x.className = x.className.replace("" w3-show"", """"); } }",1,,,"Full-time to 446.98750 (N0SZ) at Boulder, Lee Hill, CO .",,,,,,,,,,,,,,,,,,,,,,,2,,,,,,,,,,,,,,,,,,,,,
927.725,-25.7,D114,WA6IFI,"Colorado Springs, Almagre Mountain",CO,OPEN,,,150.76,WSW,,08,58,38.7726,-104.993,927.725,902.025,,Teller,On-Air,"Wide area: Along I-25 from Raton Pass to Pueblo, really solid from Pueblo through Colorado Springs, to Castle Rock, Now we are linked to Centennial Cone 927.8375 &amp; Chief Mtn 927.9375 in the Denver area.",WA6IFI,,CCARC,2018-12-01,,,,12,,,,,,Yahoo Group,,,,,,,,,,,,,,,,,,yes,293,yes,,,,,,,,,,,,,,,,,,,,,,,,,,,,,,,,,,
147.18,0.6,100,AA0SP,"Colorado Springs, Almagre Mountain",CO,PRIVATE,,,150.77,WSW,,08,8178,38.7725,-104.993,147.18,147.78,100,El Paso,On-Air,"Located on South Almagre Mountain at 12,367 feet, it provides excellent coverage of nearly all of El Paso County and points east, along with coverage extending south past Pueblo. Locations very close in to the Front Range, or in the shadow of Cheyenne Mountain are not covered well. Since this peak is shorter than Pikes Peak its coverage to the north is not as good as Pikes Peak, although there are points northeast of Colorado Springs where there is coverage.",AA0SP,,CCARC,2017-03-09,,,,E-power (solar).,,This repeater is available for public service oriented communications with prior coordination. Contact Mike Proctor KB0IAP to coordinate its use.,,,,,,,,,,,,,,,,,,,,,,,,,,,,,,,,,,,,,,,,,,,,,,,,,,,,,,,,,,
145.235,-0.6,CC,N0SZ,"Colorado Springs, Almagre Mountain",CO,OPEN,,D,150.77,WSW,,08,17250,38.772,-104.993,145.235,144.635,,El Paso,On-Air,Wide area,RMHAM,,CCARC,2018-12-23,,,,,,Voice ID is required for data/GPS/text on TG 705,,,,Rocky Mountain Ham Radio,,,yes,7,,"Open Talkgroup View Assignment TS TG Access Rocky Mountain Wide 1 700 Eastern Colorado 2 705 function myFunction(id) { var x = document.getElementById(id); if (x.className.indexOf(""w3-show"") == -1) { x.className += "" w3-show""; } else { x.className = x.className.replace("" w3-show"", """"); } }",1,,310824,,,,,,,,,,,,,,,,,,,,,,,,,2,,,,,,,,,,,,,,,,,,,,
145.415,-0.6,179.9,KA0WUC,Woodland Park,CO,OPEN,,,150.88,W,,08,249,38.9939,-105.056,145.415,144.815,179.9,Teller,,,MARC,,CCARC,2012-11-12,,,,"Closed autopatch, e-power.",,,,Unknown,,,,,,,,,,,,,,,,,,,,,,,,,,,,,,,,,,,,,,,,,,,,,,,,,,,,,,,,
449.025,-5,141.3,KA0WUC,Woodland Park,CO,OPEN,,,150.88,W,,08,252,38.9939,-105.056,449.025,444.025,141.3,Teller,,,Mountain Amateur Radio Club (MARC),,CCARC,2012-11-10,,,,Linked.,,,,Unknown,,,,,,,,,,,,,,,,,,,,,,,,,,,,,,,,,,,,,,,,,,,,,,,,,,,,,,,,
146.82,-0.6,107.2,NX0G,Woodland Park,CO,OPEN,,,150.88,W,,08,250,38.9939,-105.056,146.82,146.22,107.2,Teller,On-Air,,Mountain ARC,,CCARC,2016-11-17,,,,E-power.,,,,,,,,MARC/PCRC: Tue at 19:30.,,,,,,,,"Full-time to 146.68500 (NX0G) at Lake George, Badger Mountain, CO . Full-time to 448.65000 (NX0G) at Woodland Park, CO . Full-time to 447.47500 (NX0G) at Colorado Springs, CO . Full-time to 147.01500 (NX0G) at Cripple Creek, CO .",,,,,,,,,,,,,,,,,,,,,,,,,,,,,,,,,,,,,,,,,,,,
448.65,-5,107.2,NX0G,Woodland Park,CO,OPEN,,,150.88,W,,08,251,38.9939,-105.056,448.65,443.65,107.2,Teller,On-Air,,Mountain ARC (MARC),,CCARC,2016-11-17,,,,E-power.,,,,,MARC,,,MARC/PCRC: Tue at 19:30.,,,,,,,,"Full-time to 146.68500 (NX0G) at Lake George, Badger Mountain, CO . Full-time to 146.82000 (NX0G) at Woodland Park, CO . Full-time to 147.01500 (NX0G) at Cripple Creek, CO . Full-time to 447.47500 (NX0G) at Colorado Springs, CO .",,,,,,,,,,,,,,,,,,,,,,,,,,,,,,,,,,,,,,,,,,,,
447.675,-5,179.9,KA0WUC,Woodland Park,CO,OPEN,,,150.94,W,,08,8193,38.9939,-105.057,447.675,442.675,179.9,Teller,On-Air,,Mountain Amateur Radio Club (MARC),,CCARC,2014-05-22,,,,E-power.,,,179.9,,,,,,,,,,,,,,,,,,,,,,,,,,,,,,,,,,,,,,,,,,,,,,,,,,,,,,,,,
927.9,-25,D205,KA0WUC,Woodland Park,CO,OPEN,,,150.94,W,,08,3750,38.9938,-105.057,927.9,902.9,D205,Teller,On-Air,,MARC,,CCARC,2012-11-10,,,,,,,D205,,,,,,,,,,,,,,,,,,,,,,,,,,,,,,,,,,,,,,,,,,,,,,,,,,,,,,,,,
444.25,5,141.3,K0ECT,Montezuma,KS,OPEN,,,151.24,SE,,20,4098,37.6345,-100.464,444.25,449.25,141.3,Gray,On-Air,Local,SKECT,,Kansas Repeater Council,2018-07-12,,,,,,,141.3,,,http://skect.org/default.aspx,,ARES,,,,,,,,Full-time to the SKECT System .,,,,,,,,,,,,,,,,,,,,,,,,,,,,,,,,,,,,,,,,,,,,
146.88,-0.6,CC 88.5,ND0Q,"Pueblo, 12 Mile Hill",CO,OPEN,,D,151.73,WSW,,08,194,38.2544,-104.609,146.88,146.28,88.5,Pueblo,On-Air,Wide area.,Pueblo HC,,CCARC,2017-10-24,,,,E-power.,,,CSQ,,,,,,,,,,,,,,,,,,,,,,,,,,,,,,,,,,,,,,,,,,,,,,,,,,,,,,,,,
449.3,-5,100,N1UPS,Westminster,CO,OPEN,EI,,151.91,WNW,Node Offline,08,8208,39.8367,-105.037,449.3,444.3,100,Adams,On-Air,,N1UPS,43699,CCARC,2017-04-24,,,,,3699,,,,,,,,,,,,,,,,,,,,,,,,,,,,,,,,,,,,,,,,,,,,,,,,,,,,,,,,,,,
146.97,-0.6,100,KB0SRJ,"Colorado Springs, Pikes Peak",CO,OPEN,,,152.09,WSW,,08,44,38.84,-105.04,146.97,146.37,100,El Paso,On-Air,"Wide area. line-of-sight coverage to pretty much the entire prairie of Colorado, from the mountains eastward to Kansas, with signal as far as New Mexico and Wyoming depending on where you are.",Pikes Peak FM Assoc,,CCARC,2019-08-16,,,,e-power.,,,,,,PPFMA Repeaters,,listed on http://ppfma.org,,,,,,,,"Linkable to 448.45000 (KB0SRJ) at Colorado Springs, Pikes Peak, CO .",,,25,,,,,,,,,,,,,,,,,,,,,,,,,,,,,,,,,,,,,,,,,
448.45,-5,100,KB0SRJ,"Colorado Springs, Pikes Peak",CO,OPEN,,,152.09,WSW,,08,54,38.84,-105.04,448.45,443.45,100,El Paso,On-Air,"Wide area. line-of-sight coverage to pretty much the entire prairie of Colorado, from the mountains eastward to Kansas, with signal as far as New Mexico and Wyoming depending on where you are.",Pikes Pk FM Assoc,,CCARC,2019-03-07,,,,E-power.,,,,,,PPFMA Repeaters,,see http://www.ppfma.org,,,,,,,,"Linkable to 146.97000 (KB0SRJ) at Colorado Springs, Pikes Peak, CO .",,,25,,,,,,,,,,,,,,,,,,,,,,,,,,,,,,,,,,,,,,,,,
446.925,-5,CC,N0ESQ,"Castle Rock, Devils Head",CO,OPEN,,D,152.18,W,,08,7193,39.2648,-105.114,446.925,441.925,,Douglas,On-Air,,,,CCARC,2018-12-23,,,,,,See the website for programming info.,,,,Rocky Mountain Ham Radio,,,yes,8,,"Open Talkgroup View Assignment TS TG Access Southern Colorado 1 719 Devilshead Local 2 711 function myFunction(id) { var x = document.getElementById(id); if (x.className.indexOf(""w3-show"") == -1) { x.className += "" w3-show""; } else { x.className = x.className.replace("" w3-show"", """"); } }",,,310817,Full-time to the Colorado TRBO System .,,,,,,,,,,,,,,,,,,,,,,,1,,2,,,,,,,,,,,,,,,,,,,
447.525,-5,146.2,N0ESQ,"Castle Rock, Devils Head (Pike National Forest)",CO,OPEN,,,152.18,W,,08,8190,39.2648,-105.114,447.525,442.525,146.2,Douglas,On-Air,"Denver metro north to the Wyoming border. Back country including Bailey, Deckers, Woodland Park. Severe null due east due to Devils Head Peak.",EmComm Colorado,,CCARC,2015-06-17,,,,,,"This is not a ragchew machine. Traffic is limited to ARES, RACES and EmComm administrative, exercise, public service and disaster response.",146.2,,Colorado ARES,,,,,,,,,,,,,,,,,,,,,,,,,,,,,,,,,,,,,,,,,,,,,,,,,,,,,,,
146.88,-0.6,100,WB0TUB,"Centennial, Warren Mountain",CO,OPEN,,,153.25,W,,08,80,39.5042,-105.128,146.88,146.28,100,Jefferson,On-Air,Wide Area,Denver Radio League,,CCARC,2018-05-21,,,,E-power.,,6,,,,DRL Repeaters,,,,,,,,,,,,,,,,,,,,,,,,,,,,,,,,,,,,,,,,,,,,,,,,,,,,,,
449.6,-5,100,WB0TUB,"Centennial, Warren Mountain",CO,OPEN,EI,Y,153.25,W,Node Offline,08,273,39.5042,-105.128,449.6,444.6,100,Jefferson,On-Air,,Denver Radio League,690473,CCARC,2014-03-04,,,,,3345,,,,,DRL Repeaters,,,,,,,,,,,,,,,,,,,,,,,,,,,,,,,,,,,,,,,,,,,,,,,,,,,,,,
147.06,0.6,,K0ECT,Ulysses,KS,OPEN,,,154.11,SSE,,20,3979,37.5814,-101.355,147.06,147.66,,Grant,On-Air,Local,SKECT,,Kansas Repeater Council,2018-01-13,,,,,,,,,,,,,,,,,,,,,,,,,,,,,,,,,,,,,,,,,,,,,,,,,,,,,,,,,,,,,,,,
444.5,5,141.3,K0ECT,Jetmore,KS,OPEN,,,154.36,SE,,20,4107,38.0533,-99.8996,444.5,449.5,141.3,Hodgeman,On-Air,,SKECT,,Kansas Repeater Council,2019-03-08,,,,E-power,,,141.3,,,http://skect.org/default.aspx,,,,,,,,,,Full-time to the SKECT System .,,,,,,,,,,,,,,,,,,,,,,,,,,,,,,,,,,,,,,,,,,,,
448.75,-5,100,N0ELY,Lakewood,CO,OPEN,,,154.62,W,,08,8204,39.7046,-105.123,448.75,443.75,100,Jefferson,Off-Air,Local.,,,CCARC,2019-08-23,,,,E-power.,,,100,,N0ELY,,,,,,,,,,,,,,,,,,,,,,,,,,,,,,,,,,,,,,,,,,,,,,,,,,,,,,,
447.825,-5,D073,W0TX,"Lakewood, St Anthony Medical Campus",CO,OPEN,,,155.12,WNW,,08,5805,39.7162,-105.13,447.825,442.825,D073,Jefferson,On-Air,,Denver Radio Club,,CCARC,2017-03-11,,,,,,Now operating in Narrow Band mode with Digital Code Squelch. Please reset your programing to use: 12.5 KHz. bandwidth (+/- 2.5 KHz. deviation).,D073,,,,,,,,,,,,,,,,,,,,,,,,,,,,,,,,,,,,,,,,,,,,,,,,,,,,,,,,,
147.21,0.6,100,KD0SSP,"Lakewood, Moffat Treatment Plant",CO,OPEN,I,,155.17,WNW,,08,9775,39.7505,-105.123,147.21,147.81,100,Jefferson,On-Air,,Denver Water Amateur Radio Club,,,2018-10-07,,,,,3241,,100,,,http://www.dwarc.com,,,,,,,,,,,,,,,Yes; analog capable.,,,,,,,,,,,,,,,,,,,,,,,,,,,,,,,,,,,,,,,
448.35,-5,225.7,KD0SSP,"Lakewood, Moffat Treatment Plant",CO,OPEN,,Y,155.17,WNW,,08,17349,39.7506,-105.123,448.35,443.35,,Jefferson,On-Air,Denver Metro and surrounding,Denver Water Amateur Radio Club (DWARC),,CCARC,2018-10-02,yes,Open ↑ / Open ↓,,,,,,,,http://www.DWARC.com,,,,,,,,,,,,,,,,,,,,,,,,,,,,,,,,,,,,,,,,,,,,,,,,,,,,,,
446.875,-5,CC,N0SZ,Westcreek,CO,OPEN,,D,155.31,W,,08,15900,39.1525,-105.164,446.875,441.875,,Douglas,On-Air,,W0VG,,CCARC,2018-01-27,,,,,,,,,RMHAM,http://www.rmham.org,,,yes,6,,"Open Talkgroup View Assignment TS TG Access Southern Colorado 2 719 Full-Time Central Regional 2 720 Full-Time Northern Colorado Regional 2 721 Full-Time function myFunction(id) { var x = document.getElementById(id); if (x.className.indexOf(""w3-show"") == -1) { x.className += "" w3-show""; } else { x.className = x.className.replace("" w3-show"", """"); } }",,2,310846,Full-time to the Colorado TRBO System .,,,,,,2,,,,,,,,,,,,,,,,,2,,,RMHAM,,,,,,,,,,,,,,,,,,
147.33,0.6,100,W0TX,"Lakewood, Green Mountain",CO,OPEN,,,155.43,W,,08,85,39.6822,-105.143,147.33,147.93,100,Jefferson,On-Air,Metro Denver and the foothills.,Denver Radio Club,,CCARC,2017-03-31,,,,E-power.,,Not recommeded to use tone squelch on this repeater.,,,,DRC Repeaters,,SATERN: Thu at 19:30.,,,,,,,,,,,,,,,,,,,,,,,,,,,,,,,,,,,,,,,,,,,,,,,,,,,,
224.38,-1.6,100,W0TX,"Lakewood, Green Mountain",CO,OPEN,,,155.43,W,,08,267,39.6822,-105.143,224.38,222.78,100,Jefferson,On-Air,,Denver Radio Club,,CCARC,2017-03-11,,,,,,,100,,,DRC Repeaters,,,,,,,,,,,,,,,,,,,,,,,,,,,,,,,,,,,,,,,,,,,,,,,,,,,,,,
449.775,-5,CSQ,W0TX,"Lakewood, Green Mtn",CO,OPEN,,Y,155.43,W,,08,8215,39.6822,-105.143,449.775,444.775,,Jefferson,On-Air,Metro Denver,Denver Radio Club,,CCARC,2019-09-06,yes,Open ↑ / Open ↓,,Yaesu Digital Only,,"YSF digital only, no analog FM",,,,Denver Radio Club,,,,,,,,,,,,,,,,,,,,,,,,,,,,,,,,,,,,,,,,,,,,,,,,,,,,,,
146.61,-0.6,123,W0QS,Hugoton,KS,OPEN,,,155.46,SSE,,20,18554,37.1753006,-101.34960175,146.61,146.01,123,Graham,On-Air,,,,,2020-03-01,,,,,,,123,,,,,,,,,,,,,,,,,,,,,,,,,,,,,,,,,,,,,,,,,,,,,,,,,,,,,,,,,
448.925,-5,131.8,W0LMA,Broomfield,CO,OPEN,,,155.84,WNW,,08,26,39.9206,-105.086,448.925,443.925,131.8,Boulder,Off-Air,,W0LMA,,CCARC,2019-06-19,,,,,,,,,,,,,,,,,,,,,,,,,,,,,,,,,,,,,,,,,,,,,,,,,,,,,,,,,,,,,,,,
449.825,-5,103.5,W0WYX,Broomfield,CO,OPEN,,,155.84,WNW,,08,266,39.9206,-105.086,449.825,444.825,103.5,Boulder,Off-Air,Along the foothills and into Boulder where the 94 repeater is shadowed.,Rocky Mountain Radio League,,CCARC,2019-06-19,,,,6,,,,,,Repeater,,Colorado WX: Daily at 06:30. RMRL: Mod at 20:30. Astronomy: Tue at 19:00. Amateur Radio Events: Tue at 20:00.,,,,,,,,,,,,,,,,,,,,,,,,,,,,,,,,,,,,,,,,,,,,,,,,,,,,
447.5,-5,88.5,N0OWY,"Conifer, Critchell Mountain",CO,OPEN,,,156.82,W,,08,60,39.4703,-105.198,447.5,442.5,88.5,Jefferson,On-Air,Wide area.,Aurora Repeater Association,,CCARC,2014-04-28,,,,E-power.,,,88.5,,,,,,,,,,,,,,,,,,,,,,,,,,,,,,,,,,,,,,,,,,,,,,,,,,,,,,,,,
53.09,-1.7,107.2,W0TX,"Lakewood, Green Mountain",CO,OPEN,,,157.46,W,,08,105,39.7008,-105.178,53.09,51.39,107.2,Jefferson,On-Air,Metro Denver area.,Denver Radio Club,,CCARC,2017-03-11,,,,E-power.,,,,,,DRC Repeaters,,,,,,,,,,,,,,,,,,,,,,,,,,,,,,,,,,,,,,,,,,,,,,,,,,,,,,
147.18,0.6,100,KE0KIY,Hays,KS,OPEN,,,158.12,ESE,,20,3993,38.8411,-99.3828,147.18,147.78,100,Ellis,On-Air,35,Ellis Co. Ham Operators (ECHO),,Kansas Repeater Council,2019-03-18,,,,e-power.,,,100,,,,,,,,,,,,,,,,,,,,,,,,,,,,,,,,,,,,,,,,,,,,,,,,,,,,,,,,,
443.6,5,100,KE0KIY,Hays,KS,OPEN,,Y,158.17,ESE,,20,4076,38.9425,-99.3557,443.6,448.6,100,Ellis,On-Air,Local.,ECHO ARC,,Kansas Repeater Council,2018-04-06,yes,Open ↑ / Open ↓,,,,,CSQ,,,,,,,,,,,,,,,,,,Yes; analog capable.,,,,,,,,,,,,,,,,,,,,,,,,,,,,,,,,,,,,,,,
927.9375,-25.9,,KI0HC,"Indian Hills, Chief Mtn",CO,OPEN,,,158.21,W,,08,17457,39.6,-105.21,927.9375,902.025,,Jefferson,On-Air,"Wide area,Denver,Colorado Springs, Pueblo, Loveland. I70 East of Denver to Genoa and I25 North to Loveland &amp; South to Aguilar. I76 East to Atwood",,,CCARC,2018-12-23,,,,linked to Centennial Cone 927.8375 &amp; Almagre 927.7250,,,,,,,,,,,,,,,,,,,,,,,,yes,293,yes,,,,,,,,,,,,,,,,,,,,,,,,,,,,,,,,,,
443.275,5,100,AA0HJ,Phillipsburg,KS,OPEN,,,158.44,E,,20,11673,39.908,-99.397,443.275,448.275,100,Phillips,On-Air,,,,Kansas Repeater Council,2019-05-06,,,,,,,,,,,,,,,,,,,,,,,,,,,,,,,,,,,,,,,,,,,,,,,,,,,,,,,,,,,,,,,,
147.135,0.6,,W0SOK,Cozad,NE,OPEN,,,158.56,NE,,31,30,40.724,-99.913,147.135,147.735,,Dawson,Off-Air,,Heartland Amateur Radio Association,,,2017-06-29,,,,E-power.,,,,,,,,Wed 2030,,,,,,,,,,,,,,,,,,,,,,,,,,,,,,,,,,,,,,,,,,,,,,,,,,,,
146.73,-0.6,88.5,ND0Q,"Walsenburg, N Rattlesnake Butte",CO,OPEN,,,158.77,SW,,08,247,37.7719,-104.456,146.73,146.13,88.5,Huerfano,On-Air,"Wide area: Pueblo, Huerfano, Otero, and Las Animas Counties.",Pueblo Ham Club,,CCARC,2015-04-15,,,,6,,,,,,Pueblo Ham Club,,,,,,,,,,,,,,,,,,,,,,,,,,,,,,,,,,,,,,,,,,,,,,,,,,,,,,
53.17,-0.5,107.2,N6LXX,"Morrison, Mt. Morrison",CO,OPEN,A,,159.28,W,,08,10514,39.6734,-105.218,53.17,52.67,107.2,Jefferson,On-Air,"I-70,I-76,I-25,I-225",N6LXX,,CCARC,2019-03-25,,,,,,,CSQ,,N6LXX,,29883,,,,,,,,,Full-time to the N6LXX System .,,,,,,,,,,,,,,,,,,,,,,,,,,,,,,,,,,,,,,,,,,,,
447.875,-5,107.2,N6LXX,"Morrison, Mt. Morrison",CO,OPEN,A,,159.28,W,,08,10513,39.6734,-105.218,447.875,442.875,107.2,Jefferson,On-Air,"I-70,I-76,I-25,I-225",N6LXX,,CCARC,2017-03-09,,,,,,,107.2,,N6LXX,,29913,,,,,,,,,Full-time to the N6LXX System .,,,,,,,,,,,,,,,,,,,,,,,,,,,,,,,,,,,,,,,,,,,,
444.75,5,CC,K0USY,"Hays, KS-DMR",KS,OPEN,,D,159.3,ESE,,20,8551,38.9034,-99.3436,444.75,449.75,,Ellis,On-Air,15,,,Kansas Repeater Council,2019-05-04,,,,,,Hays West.,,,K0USY Group,KS-DMR Network,,,yes,1,,"Open Talkgroup View Assignment TS TG Access Local/Cluster 1 2 Full-Time Local or Reflector 1 9 Full-Time Kansas 2 3120 Full-Time function myFunction(id) { var x = document.getElementById(id); if (x.className.indexOf(""w3-show"") == -1) { x.className += "" w3-show""; } else { x.className = x.className.replace("" w3-show"", """"); } }",,,312003,Full-time internet linked to the KS-DMR (3120) System .,,,,,,,,,,,,,,,,,,K0USY,,,,,,,,K0USY,1,1,2,,,,,,,,,,,,,,,
443.35,5,123,KY0J,Dodge City,KS,OPEN,EA,,159.88,SE,Node Offline,20,17688,37.7524,-100.077,443.35,448.35,123,Ford,On-Air,20,KY0J,6891,Kansas Repeater Council,2019-03-18,,,,,,,123,,,,27140,,,,,,,,,,,,,,,,,,,,,,,,,,,,,,,,,,,,,,,,,,,,,,,,,,,,,
442.725,5,,KD0ARW,Phillipsburg,KS,OPEN,I,,159.99,E,,20,6210,39.7561,-99.324,442.725,447.725,,Phillips,Off-Air,Local.,KD0ARW,,Kansas Repeater Council,2019-05-06,,,,,3682,,,,,,,,,,,,,,,"Full-time to 147.12000 (AA0HJ) at Phillipsburg, KS .",,,,,,,,,,,,,,,,,,,,,,,,,,,,,,,,,,,,,,,,,,,,
146.79,-0.6,162.2,N0KOM,"Stockton, K-Link",KS,OPEN,A,,160.23,ESE,,20,13687,39.448,-99.2746,146.79,146.19,162.2,Rooks,Off-Air,Click for coverage map. 25 mi radius.,N0KOM,,Kansas Repeater Council,2019-07-13,,,,,,DB-222 @ 200 feet.,,,,K-Link Repeater Network,45746,,,,,,,,,,,,,,,,,,,,,,,,,,,,,,,,,,,,,,,,,,,,,,,,,,,,,
147.12,0.6,,AA0HJ,Phillipsburg,KS,OPEN,,,160.24,E,,20,3986,39.7583,-99.3197,147.12,147.72,,Phillips,On-Air,Local,AA0HJ,,Kansas Repeater Council,2019-05-06,,,,E-power,,,,,,,,,,,,,,,,"Full-time to 442.72500 (KD0ARW) at Phillipsburg, KS .",,,,,,,,,,,,,,,,,,,,,,,,,,,,,,,,,,,,,,,,,,,,
448.125,-5,107.2,N0PYY,Golden,CO,OPEN,,,160.35,WNW,,08,143,39.7556,-105.221,448.125,443.125,107.2,Jefferson,On-Air,,Denver PD EEB,,CCARC,2014-04-28,,,,,,,,,,,,,,,,,,,,,,,,,,,,,,,,,,,,,,,,,,,,,,,,,,,,,,,,,,,,,,,,
927.7875,-25,156.7,N0PYY,Golden,CO,OPEN,,,160.35,WNW,,08,7170,39.7555,-105.221,927.7875,902.7875,156.7,Jefferson,On-Air,Golden and Denver.,N0PYY,,,2017-12-24,,,,,,,,,,,,,,,,,,,,,,,,,,,,,,,,,,,,,,,,,,,,,,,,,,,,,,,,,,,,,,,,
448.975,-5,123,W0GV,Golden,CO,OPEN,A,,160.35,WNW,,08,137,39.7556,-105.221,448.975,443.975,123,Jefferson,On-Air,Wide area.,FRG,,CCARC,2019-09-06,,,,Linkable VHF/UHF Remote Base,,,,,,,42845,,,,,,,,,,,,,,,,,,,,,,,,,,,,,,,,,,,,,,,,,,,,,,,,,,,,,
147.045,0.6,CC 131.8,N7JYS,Hays,KS,OPEN,I,DY,160.39,ESE,,20,3975,38.9344,-99.3155,147.045,147.645,131.8,Ellis,On-Air,"Ellis, Hays, Wakeeney. 35 mi radius.",N7JYS,,Kansas Repeater Council,2018-07-31,yes,Open ↑ / Open ↓,,E-power,3917,MMDVM Mixed-mode.,131.8,,,,,,yes,7,,"Open Talkgroup View Assignment TS TG Access Local or Reflector 1 9 Full-Time CKRG 1 31204 Full-Time Local/Cluster 2 2 Full-Time KansasLink 2 31203 Full-Time function myFunction(id) { var x = document.getElementById(id); if (x.className.indexOf(""w3-show"") == -1) { x.className += "" w3-show""; } else { x.className = x.className.replace("" w3-show"", """"); } }",,,312024,Full-time internet linked to the CKRG System . Full-time internet linked to the KansasLink System . Linkable to the Western Kansas Intertie System .,,,,,Yes; analog capable.,,,yes,293,yes,,,,,,,,,,,,,,,,,2,1,,1,2,,,,,,,,,,,,,
224.28,-1.6,131.8,N7JYS,Hays,KS,OPEN,A,,160.39,ESE,,20,13278,38.9343,-99.3155,224.28,222.68,131.8,Ellis,On-Air,50,N7JYS,,,2018-01-07,,,,Internet linking,,,131.8,,Western Kansas Intertie,,2351,,,,,,,,,,,,,,,,,,,,,,,,,,,,,,,,,,,,,,,,,,,,,,,,,,,,,
442.45,5,162.2,N7JYS,"Hays, K-Link",KS,OPEN,A,,160.42,ESE,,20,4042,38.934,-99.315,442.45,447.45,162.2,Ellis,On-Air,Click for coverage map. 35 mi radius.,N7JYS,,Kansas Repeater Council,2017-12-30,,,,E-Power.,,,162.2,,Affiliate of the K-Link Repeater Network,K-Link Repeater Network,42940,ARES: Sat at 21:00.,,,,,,,,"Full-time to 444.95000 (AB0UO) at Russell, K-Link, KS . Full-time to 443.57500 (K0HAM) at Ransom, K-Link, KS . Full-time to the K-Link System . Linkable to the NEKSUN (K0HAM) System .",,,,,,,Listen Live,,,,,,,,,,,,,,,,,,,,,,,,,,,,,,,,,,,,,
446.975,-5,CC,KB0VGD,"Golden, Table Mountain",CO,OPEN,,D,160.46,WNW,,08,14273,39.7846,-105.216,446.975,441.975,,Jefferson,On-Air,Denver Metro Area,W0DMR,,,2016-01-25,,,,,,,,,,http://www.w0dmr.org/,,"Tac 310 Net, Sundays 18:00 Mountain Time, TS1, TG 310.",yes,0,,,,,,,"TS 1, CC 2: TG 3171 - Northern Colorado Network, TG 3100 - DCI Bridge, TG 1776 - USA Network, TG 310 - Tac 310. TS 2, CC 2: TG 2 - Local",,,,,,,,,,,,,,,,,,,,,,,,,,,,,,,,,,,,,,,,,,,
444.825,5,114.8,N0ECQ,Hays,KS,OPEN,,,160.51,ESE,,20,4123,38.8792,-99.3268,444.825,449.825,114.8,Ellis,On-Air,Local,,,Kansas Repeater Council,2018-01-08,,,,,,,114.8,,,,,,,,,,,,,,,,,,,,,,,,,,,,,,,,,,,,,,,,,,,,,,,,,,,,,,,,,
446.8375,-5,CC,WA2YZT,"Golden, Lookout",CO,OPEN,,D,160.63,WNW,,08,3753,39.7305,-105.232,446.8375,441.8375,,Jefferson,On-Air,,WA2YZT,,CCARC,2017-02-23,,,,200,,See website for more info on CC/TS/TG programming. www.rmham.org,,,,,,,yes,7,,,,,,Full-time to the Colorado TRBO System .,,,,,,,,,,,,,,,,,,,,,,,,,,,,,,,,,,,,,,,,,,,,
145.37,-0.6,CC,N0SZ,"Golden, Lookout Mountain",CO,OPEN,,D,160.68,WNW,,08,10939,39.7307,-105.233,145.37,144.77,,Jefferson,On-Air,,Rocky Mountain Ham Radio,,CCARC,2018-11-25,,,,700,,See the website for programming information. Voice ID is required for data/GPS/text on TG 705,,,,Rocky Mountain Ham Radio,,,yes,7,,,,,310808,,,,,,,,,,,,,,,,,,,,,,,,,,,,,,,,,,,,,,,,,,,,,
145.25,-0.6,,W0CDS,"Golden, Lookout Mountain",CO,OPEN,,S,160.68,WNW,,08,3739,39.7305,-105.233,145.25,144.65,,Jefferson,On-Air,,Colorado D-Star,,CCARC,2014-01-03,,,,,,,,,,Colorado D-Star,,,,,,,,,,,,,,,,,,,,,yes,W0CDS (C) Repeater,jfindu lookup / dstar-users lookup,,,,,,,,,,,,,,,,,,,,,,,,,,,,,,,
446.9625,-5,,W0CDS,"Golden, Lookout Mountain",CO,OPEN,,S,160.68,WNW,,08,2769,39.7305,-105.233,446.9625,441.9625,,Jefferson,On-Air,,Colorado D-Star,,CCARC,2017-03-11,,,,,,,,,,Colorado D-Star,,,,,,,,,,,,,,,,,,,,,yes,W0CDS (B) Repeater,jfindu lookup / dstar-users lookup,,,,,,,,,,,,,,,,,,,,,,,,,,,,,,,
1283.9625,-20,,W0CDS,"Golden, Lookout Mountain",CO,OPEN,,S,160.68,WNW,,08,3751,39.7305,-105.233,1283.9625,1263.9625,,Jefferson,On-Air,,Colorado D-Star,,CCARC,2014-01-03,,,,,,,,,,Colorado D-Star,,,,,,,,,,,,,,,,,,,,,yes,W0CDS (A) Repeater,jfindu lookup / dstar-users lookup,,,,,,,,,,,,,,,,,,,,,,,,,,,,,,,
1299.9,0,,W0CDS,"Golden, Lookout Mountain",CO,OPEN,,S,160.68,WNW,,08,8222,39.7305,-105.233,1299.9,1299.9,,Jefferson,On-Air,,Colorado D-Star,,,2014-01-03,,,,,,,,,,Colorado D-Star,,,,,,,,,,,,,,,,,,,,,yes,W0CDS (A) DVAP 24/7,jfindu lookup / dstar-users lookup,,,,,,,,,,,,,,,,,,,,,,,,,,,,,,,
147.015,0.6,107.2,NX0G,Cripple Creek,CO,OPEN,,,160.86,WSW,,08,65,38.7466,-105.178,147.015,147.615,107.2,Teller,On-Air,,Mountain ARC,,CCARC,2016-11-17,,,,E-power.,,,,,,,,MARC/PCRC: Tue at 19:30.,,,,,,,,"Full-time to 146.68500 (NX0G) at Lake George, Badger Mountain, CO . Full-time to 146.82000 (NX0G) at Woodland Park, CO . Full-time to 448.65000 (NX0G) at Woodland Park, CO . Full-time to 447.47500 (NX0G) at Colorado Springs, CO .",,,,,,,,,,,,,,,,,,,,,,,,,,,,,,,,,,,,,,,,,,,,
145.46,-0.6,67,WB0WDF,Cripple Creek,CO,OPEN,,,160.86,WSW,,08,64,38.7466,-105.178,145.46,144.86,67,Teller,On-Air,,WB0WDF,,CCARC,2012-06-15,,,,"E-power, 100% Solar",,,,,RGARC,,,,,,,,,,,,,,,,,,,,,,,,,,,,,,,,,,,,,,,,,,,,,,,,,,,,,,,
224.94,-1.6,67,WB0WDF,Cripple Creek,CO,OPEN,,,160.86,WSW,,08,7203,38.7466,-105.178,224.94,223.34,67,Teller,Testing,,,,CCARC,2012-06-18,,,,,,,,,,,,,,,,,,,,,,,,,,,,,,,,,,,,,,,,,,,,,,,,,,,,,,,,,,,,,,,,
447.4,-5,67,WB0WDF,Cripple Creek,CO,OPEN,,,160.86,WSW,,08,66,38.7467,-105.178,447.4,442.4,67,Teller,On-Air,,WB0WDF,,CCARC,2012-06-15,,,,"E-power, Solar, Remote Base",,,,,,,,,,,,,,,,,,,,,,,,,,,,,,,,,,,,,,,,,,,,,,,,,,,,,,,,,,,,
1287.7,-20,67,WB0WDF,Cripple Creek,CO,OPEN,,,160.86,WSW,,08,67,38.7466,-105.178,1287.7,1267.7,67,Teller,Testing,,WB0WDF,,CCARC,2012-06-18,,,,,,Testing in Canon City,,,,,,,,,,,,,,,,,,,,,,,,,,,,,,,,,,,,,,,,,,,,,,,,,,,,,,,,,,
927.975,-25.9,67,W0SKY,"Golden, Lookout Mountain",CO,OPEN,A,,160.92,WNW,,08,18156,39.7333,-105.237,927.975,902.0375,67,Jefferson,On-Air,"Denver, Golden",,,,2019-10-05,,,,AllStar,,,67,,,http://www.w0sky.com,,,,,,,,,,,Standard AllStar,,,,,,,,,,,,,,,,,,,,,,,,,,,,,,,,,,,,,,,,,,,
443.675,5,162.2,K0HAM,"Dodge City, K-Link",KS,OPEN,A,,160.94,SE,,20,11669,37.766,-100.035,443.675,448.675,162.2,Ford,On-Air,Click for coverage map. 45 mi radius.,"NV8Q, WV0S",,Kansas Repeater Council,2019-02-16,,,,Linked to K-Link Repeater Network. AllStar 46012.,,,162.2,,Affiliate of the K-Link Repeater Network,K-Link Repeater Network,46012,,,,,,,,,Full-time to the K-Link System .,,,,,,,,,,,,,,,,,,,,,,,,,,,,,,,,,,,,,,,,,,,,
449.625,-5,141.3,KE0VH,"Golden, Lookout Mountain",CO,OPEN,,Y,161.02,WNW,,08,139,39.733,-105.239,449.625,444.625,141.3,Jefferson,On-Air,,,,CCARC,2019-06-19,yes,Open ↑ / Open ↓,,E-power,,,141.3,,,,,,,,,,,,,,,,,,Yes; analog capable.,,,,,,,,,,,,,,,,,,,,,,,,,,,,,,,,,,,,,,,
448.525,-5,151.4,N0EPA,Longmont,CO,OPEN,E,,161.81,WNW,Node Offline,08,176,40.1672,-105.101,448.525,443.525,151.4,Boulder,On-Air,,N0EPA,223853,CCARC,2019-06-19,,,,,,,,,,,,,,,,,,,,,,,,,,,,,,,,,,,,,,,,,,,,,,,,,,,,,,,,,,,,,,,,
147.27,0.6,100,W0ENO,Longmont,CO,OPEN,,,161.81,WNW,,08,175,40.1672,-105.101,147.27,147.87,100,Boulder,On-Air,Wide area: Northern Colorado.,Longmont ARC (LARC),,CCARC,2017-03-11,,,,"Closed autopatch, e-power, EchoLink.",,,100,,,http://w0eno.org/?q=node/11,,,,,,,,,,"Linkable to 448.80000 (W0ENO) at Longmont, CO .",,,,,,,,,,,,,,,,,,,,,,,,,,,,,,,,,,,,,,,,,,,,
448.8,-5,88.5,W0ENO,Longmont,CO,OPEN,,,161.81,WNW,,08,177,40.1672,-105.101,448.8,443.8,88.5,Boulder,On-Air,,Longmont ARC,,CCARC,2017-03-11,,,,30,,,88.5,,,,,LARC: Sun at 20:00.,,,,,,,,"Linkable to 147.27000 (W0ENO) at Longmont, CO .",,,,,,,,,,,,,,,,,,,,,,,,,,,,,,,,,,,,,,,,,,,,
146.76,-0.6,100,W0IA,"Boulder, Gunbarrel Hill",CO,OPEN,,,162.07,WNW,,08,16,40.0556,-105.157,146.76,146.16,100,Boulder,On-Air,Wide area.,Rocky Mtn VHF Soc,,CCARC,2017-03-11,,,,5,,ARES primary repeater. Voting Receivers: RX Location Tone Pitch PL Gunbarrel single beep low 100.0 Lousville single beep low 100.0 Lyons double beep high followed by medium 100.0 Louisville #2 double beep high followed by low 100.0,,,Boulder County ARES,,,,,,,,,,,,,,,,,,,,,,,,,,,,,,,,,,,,,,,,,,,Tone,single beep,single beep,double beep,double beep,,,,,,,,
147.03,0.6,123,K0ECT,Dodge City,KS,OPEN,,,162.28,SE,,20,3974,37.7528,-100.017,147.03,147.63,123,Ford,On-Air,,SKECT,,,2019-09-02,,,,Autopatch,,,,,,,,RACES,,,,,,,,,,,,,,,,,,,,,,,,,,,,,,,,,,,,,,,,,,,,,,,,,,,,
442.375,5,123,K0ECT,Dodge City,KS,OPEN,,,162.28,SE,,20,4041,37.7528,-100.017,442.375,447.375,123,Ford,On-Air,US-50,,,Kansas Repeater Council,2019-09-02,,,,Autopatch.,,,,,,,,,,,,,,,,,,,,,,,,,,,,,,,,,,,,,,,,,,,,,,,,,,,,,,,,,,,,
1287.9,-20,CSQ,W0CRA,"Conifer, Conifer Mountain",CO,OPEN,,,162.74,W,,08,103,39.5211,-105.305,1287.9,1267.9,CSQ,Jefferson,Off-Air,Fort Collins to Colorado Springs.,Colorado Repeater Association (CRA),,CCARC,2017-10-07,,,,,,,,,,,,,,,,,,,,,,,,,,,,,,,,,,,,,,,,,,,,,,,,,,,,,,,,,,,,,,,,
444.9875,5,CC,K0USY,"Hays, KS-DMR",KS,OPEN,,D,163.15,ESE,,20,17220,38.8982,-99.272,444.9875,449.9875,,Ellis,On-Air,18,,,Kansas Repeater Council,2019-05-04,,,,,,,,,,KS-DMR Network,,,yes,1,,"Open Talkgroup View Assignment TS TG Access Local/Cluster 1 2 Full-Time Local or Reflector 1 9 Full-Time Kansas 2 3120 Full-Time function myFunction(id) { var x = document.getElementById(id); if (x.className.indexOf(""w3-show"") == -1) { x.className += "" w3-show""; } else { x.className = x.className.replace("" w3-show"", """"); } }",,,312034,Full-time internet linked to the KS-DMR (3120) System .,,,,,,,,,,,,,,,,,,K0USY,,,,,,,,K0USY,1,1,2,,,,,,,,,,,,,,,
145.205,-0.6,CSQ,KA0RCZ,Alma,NE,OPEN,,,163.97,E,,31,6,40.1008,-99.3625,145.205,144.605,CSQ,Harlan,On-Air,,,,WB0CMC,2018-04-01,,,,Linked to 444.625 Axtel.,,,CSQ,,,http://w0ky.club/,,,,,,,,,,,,,,,,,,,,,,,,,,,,,,,,,,,,,,,,,,,,,,,,,,,,,,
145.34,-0.6,103.5,KE4GUQ,Evergreen,CO,OPEN,I,,164.14,W,,08,73,39.6333,-105.317,145.34,144.74,103.5,Jefferson,On-Air,Wide area.,Rocky Mtn Radio League,,CCARC,2019-08-15,,,,E-power.,3350,,127.3,,,Repeater,,,,,,,,,,,,,,,,,,,,,,,,,,,,,,,,,,,,,,,,,,,,,,,,,,,,,,
145.175,-0.6,CC,N0SZ,"Evergreen, Squaw Mountain",CO,OPEN,,D,164.14,W,,08,10932,39.6333,-105.317,145.175,144.575,,Clear Creek,On-Air,,Rocky Mountain Ham Radio,,CCARC,2018-11-25,,,,700,,Voice ID is required for data/GPS/text on TG 705,,,,Rocky Mountain Ham Radio,,,yes,7,,,,,310810,,,,,,,,,,,,,,,,,,,,,,,,,,,,,,,,,,,,,,,,,,,,,
448.025,-5,100,W0UPS,"Loveland, Budweiser Event Center",CO,OPEN,,Y,164.26,WNW,,08,3621,40.444,-104.989,448.025,443.025,100,Larimer,On-Air,,Northern Colorado ARC,,CCARC,2016-03-21,yes,Open ↑ / Open ↓,,,,,100,,,,,,,,,,,,,,,,,,Yes; analog capable.,,,,,,,,,,,,,,,,,,,,,,,,,,,,,,,,,,,,,,,
147.18,0.6,,WK0DX,Plains,KS,OPEN,,,164.75,SSE,,20,3996,37.2933,-100.64,147.18,147.78,,Meade,On-Air,Local,WK0DX,,Kansas Repeater Council,2014-07-07,,,,,,,,,,,,,,,,,,,,,,,,,,,,,,,,,,,,,,,,,,,,,,,,,,,,,,,,,,,,,,,,
447.2,-5,82.5,N6RFI,"Severance, Cactus Hill",CO,OPEN,,,165.14,WNW,,08,8188,40.581,-104.906,447.2,442.2,82.5,Weld,On-Air,,N6RFI,,CCARC,2017-03-11,,,,,,,,,,,,,,,,,,,,,,,,,,,,,,,,,,,,,,,,,,,,,,,,,,,,,,,,,,,,,,,,
147.12,0.6,88.5,N0ARA,"Critchell, Critchell Mountain",CO,OPEN,,,165.26,W,,08,59,39.5148,-105.353,147.12,147.72,88.5,Jefferson,On-Air,Denver metro and east.,Aurora Repeater Association,,CCARC,2016-01-17,,,,E-power.,,,88.5,,,http://www.n0ara.org,,,,,,,,,,,,,,,,,,,,,,,,,,,,,,,,,,,,,,,,,,,,,,,,,,,,,,
145.3875,-0.6,,KC0DS,Boulder,CO,OPEN,,S,165.38,WNW,,08,8171,40.0372,-105.23,145.3875,144.7875,,Boulder,On-Air,20,Boulder County ARES,,CCARC,2012-11-12,,,,E-power.,,,,,,http://bouldercountyares.org/technical/d-star,,,,,,,,,,,,,,,,,,,,,yes,KC0DS (C),jfindu lookup / dstar-users lookup,,,,,,,,,,,,,,,,,,,,,,,,,,,,,,,
1283.8625,-20,,KC0DS,Boulder,CO,OPEN,,S,165.38,WNW,,08,8220,40.0372,-105.23,1283.8625,1263.8625,,Boulder,On-Air,20,Boulder County ARES,,CCARC,2013-12-21,,,,E-power.,,,,,,,,,,,,,,,,,,,,,,,,,,,yes,KC0DS (A) Repeater,jfindu lookup / dstar-users lookup,,,,,,,,,,,,,,,,,,,,,,,,,,,,,,,
147.39,0.6,CC,W0DMR,"Fort Collins, Timnath",CO,OPEN,,D,165.57,WNW,,08,12562,40.5446,-104.944,147.39,147.99,,Larimer,On-Air,"Fort Collins east side, into Red Feather Lakes area.",KT0L - NoCo C-Bridge Network,,CCARC,2017-03-11,,,,,,,,,,Documentation,,Tac 310 Net: Sun at 18:00.,yes,2,,"Open Talkgroup View Assignment TS TG Access TAC 310 1 310 DCI Bridge 1 3100 N. Colorado 1 3171 Mountain Reg USA 1 3177 Local/Cluster 2 2 function myFunction(id) { var x = document.getElementById(id); if (x.className.indexOf(""w3-show"") == -1) { x.className += "" w3-show""; } else { x.className = x.className.replace("" w3-show"", """"); } }",,,310822,,,,,,,,,,,,,,,,,,,,1,,,,,,,,2,,,,,,,,,,1,1,1,,,,,
449.75,-5,103.5,KI0GO,"Golden, Guy Hill",CO,OPEN,,,166.21,WNW,,08,265,39.7772,-105.328,449.75,444.75,103.5,Jefferson,On-Air,,Rocky Mtn Radio League,,CCARC,2016-12-23,,,,8,,,103.5,,,Repeater,,,,,,,,,,,,,,,,,,,,,,,,,,,,,,,,,,,,,,,,,,,,,,,,,,,,,,
224.74,-1.6,88.5,N0POH,"Golden, Guy Hill",CO,OPEN,,,166.21,WNW,,08,134,39.7772,-105.328,224.74,223.14,88.5,Jefferson,On-Air,,Aurora Repeater Assoc,,CCARC,2016-01-17,,,,e-power,,,88.5,,,ARA Repeaters,,ARA: Wed at 2000.,,,,,,,,,,,,,,,,,,,,,,,,,,,,,,,,,,,,,,,,,,,,,,,,,,,,
145.22,-0.6,103.5,WT0C,"Golden, Guy Hill",CO,OPEN,,,166.21,WNW,,08,71,39.7772,-105.328,145.22,144.62,103.5,Jefferson,On-Air,Wide area.,Rocky Mtn Radio League,,CCARC,2016-12-23,,,,8,,Talk-Group of $FFFF.,103.5,,,Repeater,,,,,,,,,,,,,,,Yes; analog capable.,,,yes,293,yes,,,,,,,,,,,,,,,,,,,,,,,,,,,,,,,,,,
448.85,-5,88.5,K0IBM,"Golden, Guy Hill",CO,OPEN,,,166.26,WNW,,08,136,39.7772,-105.329,448.85,443.85,88.5,Jefferson,On-Air,"Denver metro, central front range",Aurora Repeater Assoc,,CCARC,2016-01-17,,,,e-power.,,,88.5,,,ARA Repeaters,,ARA: Wed at 20:00.,,,,,,,,,,,,,,,,,,,,,,,,,,,,,,,,,,,,,,,,,,,,,,,,,,,,
224,-1.6,103.5,N0MHU,"Golden, Guy Hill",CO,OPEN,,,166.26,WNW,,08,86,39.7772,-105.329,224,222.4,103.5,Jefferson,On-Air,,Rocky Mountain Radio League,,CCARC,2017-03-11,,,,8,,,103.5,,,Repeater,,,,,,,,,,,,,,,,,,,,,,,,,,,,,,,,,,,,,,,,,,,,,,,,,,,,,,
147.15,0.6,100,W0CBI,"Golden, Guy Hill",CO,OPEN,,,166.26,WNW,,08,133,39.7772,-105.329,147.15,147.75,100,Jefferson,On-Air,"Denver metro, central front range",Aurora Repeater Assoc (ARA),,CCARC,2016-01-17,,,,e-power,,,100,,,ARA Repeaters,,ARA: Wed at 20:00.,,,,,,,,"Linkable to 224.74000 (N0POH) at Golden, Guy Hill, CO .",,,,,,,,,,,,,,,,,,,,,,,,,,,,,,,,,,,,,,,,,,,,
146.73,-0.6,91.5,K0DK,Boulder,CO,OPEN,E,,166.44,WNW,Node Offline,08,15,40.0571,-105.243,146.73,146.13,91.5,Boulder,Off-Air,Local,BARC,115482,CCARC,2017-05-02,,,,12,,,91.5,,,http://www.ked-wireless.com/products1.htm,,,,,,,,,,,,,,DN70jb,,,,,,,,,,,,,,,,,,,,,,,,,,,,,,,,,,,,,,,,
446.775,-5,CC,W0DMR,"Fort Collins, Timnath",CO,OPEN,,D,166.5,WNW,,08,10995,40.5938,-104.926,446.775,441.775,,Larimer,On-Air,"Fort Collins east side, into Red Feather Lakes area.",W0DMR - NoCo C-bridge Network,,CCARC,2017-01-11,,,,,,"Any additional Brandmeister talk group is available on time slot 1, too many to list here, see website. https://dmrx.net/files/US_BM_User_Guide.pdf",,,Brandmeister Network,W0DMR,,,yes,2,,"Open Talkgroup View Assignment TS TG Access Worldwide English 1 91 Full-Time North America 1 93 Full-Time DCI Bridge 1 3100 Full-Time Local/Cluster 2 2 Colorado 2 3108 Full-Time N. Colorado 2 3171 Full-Time function myFunction(id) { var x = document.getElementById(id); if (x.className.indexOf(""w3-show"") == -1) { x.className += "" w3-show""; } else { x.className = x.className.replace("" w3-show"", """"); } }",,,,,"Repeater ID: 310806, TS 1: TG 91 - World Wide, TG 93 - North America, TG 3100 USA. TS 2: TG 2 - Local, TG 3171 - No. Colorado, TG 3108 Colorado Statewide.",,,,,,,,,,,,,,,,,,,,2,,,,,BrandMeister US,2,,,,,,,,,,1,2,,1,1,,,
423,820,ATV,W0BTV,Boulder,CO,OPEN,,,166.52,WNW,,08,18534,39.97848511,-105.27445221,423,1243,ATV,Boulder,On-Air,"Wide Area, WY border to DIA to SE Denver",BATVC,,,2020-02-25,,,,"dual-mode, NTSC analog &amp; DVB-T digital ATV",,,,,ATN,https://kh6htv.com/,,"ATV, Thurs, 3pm local",,,,,,,,,,,,,,,,,,,,,,,,,,,,,,,,,,,,,,,,,,,,,,,,,,,,
146.61,-0.6,100,W0DK,Boulder,CO,OPEN,I,,166.54,WNW,,08,13,39.9783,-105.275,146.61,146.01,100,Boulder,On-Air,,Boulder Amateur Radio Club,,CCARC,2019-08-23,,,,,7007,,,,,,,,,,,,,,,,,,,,,,,,,,,,,,,,,,,,,,,,,,,,,,,,,,,,,,,,,,,
448.9,-5,100,W0DK,"Boulder, Table Mesa",CO,OPEN,,,166.54,WNW,,08,10,39.978,-105.275,448.9,443.9,100,Boulder,On-Air,"Wyoming border in the north, to Monument Hill in the south, near Colorado Springs. Its coverage is primarily to the east of the Front Range of the Rockies as the repeater signal is blocked to the west by the even higher Rocky Mountain peaks with altitudes of over 14,000 feet.",Boulder ARC,,CCARC,2013-03-17,,,,6,,,,,,,,,,,,,,,,,,,,,,,,,,,,,,,,,,,,,,,,,,,,,,,,,,,,,,,,,,,,
146.7,-0.6,100,W0DK,"Boulder, Table Mountain",CO,OPEN,,,166.73,WNW,,08,14,39.9775,-105.279,146.7,146.1,100,Boulder,On-Air,"Wyoming border in the north, to Monument Hill (near Colorado Springs) in the south. Coverage is primarily to the east of the Rockies Front Range, as the repeater signal is blocked to the west by mountain peaks with altitudes of over 14,000 feet.",Boulder Co ARC,,CCARC,2013-03-17,,,,6,,,,,,BARC Repeaters,,,,,,,,,,,,,,,,,,,,,,,,,,,,,,,,,,,,,,,,,,,,,,,,,,,,,,
449.575,-5,100,W0LRA,"Loveland, Namaqua Hill",CO,OPEN,,,166.81,WNW,,08,181,40.3978,-105.074,449.575,444.575,100,Larimer,On-Air,,Loveland Rptr Assoc,,CCARC,2018-02-24,,,,"Closed autopatch, e-power.",,,,,,,,,,,,,,,,,,,,,,,,,,,,,,,,,,,,,,,,,,,,,,,,,,,,,,,,,,,,
449.4,-5,91.5,K0DK,Boulder,CO,OPEN,,,166.97,WNW,,08,21,40.015,-105.27,449.4,444.4,91.5,Boulder,Off-Air,,BARC,,CCARC,2013-01-08,,,,2,,,,,,http://www.ked-wireless.com/products1.htm,,,,,,,,,,,,,,,,,,,,,,,,,,,,,,,,,,,,,,,,,,,,,,,,,,,,,,
449.55,-5,100,W0IA,Boulder,CO,OPEN,E,,166.97,WNW,ON - IDLE,08,11,40.015,-105.27,449.55,444.55,100,Boulder,On-Air,Denver metro area.,Rocky Mtn VHF Soc,217336,CCARC,2017-03-11,,,,8,,,,,,,,,,,,,,,,"Full-time to 224.02000 (W0IA) at Boulder, Lee Hill, CO .",,,,,,,,,,,,,,,,,,,,,,,,,,,,,,,,,,,,,,,,,,,,
449.7,-5,107.2,,Lake George,CO,OPEN,,,167.01,W,,08,8214,38.9797,-105.357,449.7,444.7,107.2,Park,,,CMRG,,CCARC,2012-11-12,,,,,,,,Unknown,,,,,,,,,,,,,,,,,,,,,,,,,,,,,,,,,,,,,,,,,,,,,,,,,,,,,,,,
446.8625,-5,,KC0DS,Boulder,CO,OPEN,,S,167.02,WNW,,08,8186,40.015,-105.271,446.8625,441.8625,,Boulder,On-Air,,Boulder County ARES,,CCARC,2017-03-11,,,,,,,,,,,,,,,,,,,,,,,,,,,,,,,yes,KC0DS (B),jfindu lookup / dstar-users lookup,,,,,,,,,,,,,,,,,,,,,,,,,,,,,,,
446.8,-5,CC,N0SZ,"Boulder, Mount Thorodin",CO,OPEN,,D,167.02,WNW,,08,8185,40.015,-105.271,446.8,441.8,,Boulder,On-Air,Wide area.,Rocky Mountain Ham Radio,,CCARC,2017-03-11,,,,,,See website for complete information regarding timeslot/colorcode/talkgroup programming.,,,Rocky Mountain Ham Radio,Rocky Mountain Ham Radio,,,yes,7,,,,,,Full-time to the Colorado TRBO System .,,,,,,,,,,,,,,,,,,,,,,,,,,,,,,,,,,,,,,,,,,,,
1299.5,-20,,W0DK,Boulder,CO,OPEN,,S,167.02,WNW,,08,8221,40.015,-105.271,1299.5,1279.5,,Boulder,On-Air,,Boulder County ARES,,CCARC,2012-11-12,,,,E-power.,,,,,,,,,,,,,,,,,,,,,,,,,,,yes,W0DK (A) DVAP 24/7,jfindu lookup / dstar-users lookup,,,,,,,,,,,,,,,,,,,,,,,,,,,,,,,
146.895,-0.6,123,K0PCA,Loomis,NE,OPEN,,,167.32,E,,31,38,40.4783,-99.507,146.895,146.295,123,Phelps,On-Air,,Region 15 ARES/RACES,,WB0CMC,2017-05-21,,,,E-power.,,,123,,,,,,,,,,,,,,,,,,,,,,,,,,,,,,,,,,,,,,,,,,,,,,,,,,,,,,,,,
448.625,-5,100,W0TX,"Golden, Centennial Cone",CO,OPEN,,,167.48,WNW,,08,112,39.7525,-105.358,448.625,443.625,100,Jefferson,On-Air,Denver metro area.,Denver Radio Club,,CCARC,2017-03-11,,,,E-power.,,,100,,,DRC Repeaters,,DRC: Sun at 20:30.,,,,,,,,"Full-time to 145.49000 (W0TX) at Idaho Springs, Centennial Cone, CO .",,,,,,,,,,,,,,,,,,,,,,,,,,,,,,,,,,,,,,,,,,,,
146.985,-0.6,100,K0FEZ,"Golden, Centennial Cone",CO,OPEN,I,,167.54,WNW,,08,82,39.7525,-105.359,146.985,146.385,100,Denver,On-Air,,El Jebel RADOPS,,CCARC,2016-09-05,,,,E-power.,3346,,100,,,,,RADOPS: Sun at 19:00.,,,,,,,,,,,,,,,,,,,,,,,,,,,,,,,,,,,,,,,,,,,,,,,,,,,,
145.28,-0.6,100,KE0SJ,"Golden, Centennial Cone",CO,OPEN,,,167.54,WNW,,08,140,39.7525,-105.359,145.28,144.68,100,Jefferson,On-Air,Wide area.,,,CCARC,2015-05-22,,,,"Closed autopatch, e-power, linked.",,"PL is usually off, allowing use by older transceivers.",,,,Intermountain Repeater Group,,Sun at 19:30. Everyone welcome.,,,,,,,,"Full-time to 449.52500 (KE0SJ) at Golden, Centennial Cone, CO .",,,,,,,,,,,,,,,,,,,,,,,,,,,,,,,,,,,,,,,,,,,,
449.525,-5,CSQ,KE0SJ,"Golden, Centennial Cone",CO,OPEN,,,167.54,WNW,,08,138,39.7525,-105.359,449.525,444.525,CSQ,Jefferson,On-Air,,KE0SJ,,CCARC,2015-05-23,,,,E-power.,,,,,,Intermountain Repeater Group,,,,,,,,,,"Full-time to 145.28000 (KE0SJ) at Golden, Centennial Cone, CO .",,,,,,,,,,,,,,,,,,,,,,,,,,,,,,,,,,,,,,,,,,,,
146.64,-0.6,100,WB0TUB,"Golden, Centennial Cone",CO,OPEN,,,167.54,WNW,,08,77,39.7525,-105.359,146.64,146.04,100,Jefferson,On-Air,Wide area. Repeater Coverage Map,Denver Radio League,,CCARC,2017-03-11,,,,E-power.,,8,,,,DRL Repeaters,,,,,,,,,,,,,,,,,,,,,,,,,,,,,,,,,,,,,,,,,,,,,,,,,,,,,,
927.8375,-25.8,D205,KI0HC,"Golden, Centennial Cone",CO,OPEN,,,168.06,WNW,,08,9702,39.7658,-105.366,927.8375,902.025,,Jefferson,On-Air,Great coverage of the Denver area and I-76 East to Atwood MM112. I-70 East to Agate MM340. West to Idaho Springs MM240. And I-25 from Larkspur MM172 to Longmont MM240 depending on the hills. Now linked with Almagre 927.7250 for great coverage south,,,CCARC,2018-12-23,,,,Linked with Chief 927.9375 &amp; Almagre 927.7250 for wide area coverage,,The offset is -25.8125,,,,,45770,,,,,,,,,,,,,,,,,yes,293,yes,,,,,,,,,,,,,,,,,,,,,,,,,,,,,,,,,,
146.85,-0.6,123,N0VL,Lexington,NE,OPEN,,,168.06,NE,,31,12983,40.7807,-99.7421,146.85,146.25,123,Dawson,On-Air,,,,WB0CMC,2016-07-20,,,,,,,123,,,,,,,,,,,,,,,,,,,,,,,,,,,,,,,,,,,,,,,,,,,,,,,,,,,,,,,,,
446.7875,-5,CC,W0TX,"Denver, Centennial Cone",CO,OPEN,,D,168.06,WNW,,08,7165,39.7657,-105.366,446.7875,441.7875,,Jefferson,On-Air,,Denver Radio Club,,CCARC,2017-12-09,,,,,,,,,Brandmeister Network,http://www.w0tx.org/,,,yes,1,,,,,,,"Any Brandmeister talk group is available on time slot 1, too many to list here, see website. https://dmrx.net/files/US_BM_User_Guide.pdf. TG's are PTT enabled and will timeout after 15 minutes of inactivity. Time Slot 2 Talk Group 310805 is local repeater only.",,,,,,,,,,,,,,,,,,,,,,,,,,,,,,,,,,,,,,,,,,,
443.5,5,141.3,WK0DX,Plains,KS,OPEN,,,168.06,SSE,,20,11458,37.2603,-100.593,443.5,448.5,141.3,Meade,On-Air,Wide Area,WK0DX,,Kansas Repeater Council,2016-11-19,,,,,,,,,,,,,,,,,,,,,,,,,,,,,,,,,,,,,,,,,,,,,,,,,,,,,,,,,,,,,,,,
147.195,0.6,100,W0LRA,"Loveland, Namaqua Hill",CO,OPEN,,,169.25,WNW,,08,179,40.3985,-105.125,147.195,147.795,100,Larimer,On-Air,,Loveland Repeater Assoc,,CCARC,2016-08-18,,,,"Closed autopatch, e-power.",,,,,,,,,,,,,,,,,,,,,,,,,,,,,,,,,,,,,,,,,,,,,,,,,,,,,,,,,,,,
147,-0.6,103.5,N0NEB,Harrisburg,NE,OPEN,,,169.95,NNW,,31,58,41.49,-103.755,147,146.4,103.5,Banner,On-Air,,Tri-City Radio Amateur Club,,,2017-09-07,,,,,,,,,,,,,,,,,,,,,,,,,,,,,,,,,,,,,,,,,,,,,,,,,,,,,,,,,,,,,,,,
447.725,-5,131.8,W7RF,Fort Collins,CO,OPEN,,,170.13,WNW,,08,8194,40.496,-105.079,447.725,442.725,131.8,Larimer,On-Air,,W7RF,,CCARC,2018-05-13,,,,,,,,,,,,,,,,,,,,,,,,,,,,,,,,,,,,,,,,,,,,,,,,,,,,,,,,,,,,,,,,
447.975,-5,100,K0JSC,"Canon City, Colorado",CO,OPEN,EIA,,170.5,WSW,ON - IDLE,08,7185,38.4301,-105.232,447.975,442.975,100,Fremont,On-Air,Canon City area. Repeater Coverage Map,K0JSC,363976,CCARC,2017-03-11,,,,Autopatch.,7301,,100,,,http://www.k0jsc.com,28368,Region 2 District 2 ARES Net: Tue at 19:00. EOSS Net: Tue at 20:00. RGARC Net: Wed at 19:00. Region 5 District 1 ARES Net: Wed at 19:30. APRS Net: Sun at 19:00. Region 5 District 2 ARES Net: Sun at 19:30. Statewide ARES Net: Sun at 20:00.,,,,,,,,Full-time to the The Fun Machine System .,,,,,,,Listen Live,,,,,,,,,,,,,,,,,,,,,,,,,,,,,,,,,,,,,
147.39,0.6,88.5,WB5NJU,Kenton,NM,OPEN,,,170.91,SSW,,35,18214,36.90100098,-103.00299835,147.39,147.99,88.5,Union,On-Air,,,,,2019-10-30,,,,,,Repeater on the New Mexico - Oklahoma border,,,,,,,,,,,,,,,,,,,,,,,,,,,,,,,,,,,,,,,,,,,,,,,,,,,,,,,,,,
146.895,-0.6,100,AB0PC,"Bailey, Dick Mountain",CO,OPEN,A,,171.31,W,,08,7,39.4056,-105.473,146.895,146.295,100,Park,On-Air,285,AB0RR,,CCARC,2017-07-05,,,,25,,,100,,,Park County Radio Club (PCRC),45835,Wed at 19:30.,,,,,,,,"Full-time internet linked to 448.57500 (WZ0N) at Hartsel, CO .",,,,,,,,,,,,,,,,,,,,,,,,,,,,,,,,,,,,,,,,,,,,
146.805,-0.6,103.5,W0KKS,Liberal,KS,OPEN,,,171.41,SSE,,20,3949,37.0597,-100.93,146.805,146.205,103.5,Seward,On-Air,Local,Southern Plains ARC,,Kansas Repeater Council,2018-03-30,,,,Autopatch,,,103.5,,,http://spark-ks.org/,,,,,,,,,,,,,,,,,,,,,,,,,,,,,,,,,,,,,,,,,,,,,,,,,,,,,,
447.85,-5,141.3,AC0KQ,"Evergreen, Saddleback Mountain",CO,OPEN,A,,171.42,W,,08,9580,39.7189,-105.44,447.85,442.85,141.3,Clear Creek,Off-Air,Wide area at 9500',AC0KQ,,CCARC,2019-08-23,,,,AllStar node repeater providing wide area coverage along the Front Range,,,141.3,,Rocky Mountain Ham Radio,,29571,,,,,,,,,,,,,,,,,,,,,,,,,,,,,,,,,,,,,,,,,,,,,,,,,,,,,
443.1,5,141.3,K0ECT,Liberal,KS,OPEN,,,171.45,SSE,,20,4064,37.059,-100.93,443.1,448.1,141.3,Seward,On-Air,Local,SPARK,,Kansas Repeater Council,2019-05-07,,,,Autopatch,,,,,,http://skect.org/default.aspx,,,,,,,,,,Full-time to the SKECT System .,,,,,,,,,,,,,,,,,,,,,,,,,,,,,,,,,,,,,,,,,,,,
445.05,-5,CC,N0SZ,"Boulder, Lee Hill",CO,OPEN,,D,172.35,WNW,,08,8992,40.0722,-105.354,445.05,440.05,,Boulder,On-Air,Wide area,Rocky Mountain Ham Radio,,CCARC,2018-10-17,,,,BrandMeister Network,,,,,,,,,yes,1,BrandMeister,,,,,,,,,,,,,,,,,,,,,,,BrandMeister US,,,,,,,,,,,,,,,,,,,,,,,,,,
446.9875,-5,CC,N0SZ,"Boulder, Lee Hill",CO,OPEN,,D,172.35,WNW,,08,5219,40.0722,-105.354,446.9875,441.9875,,Boulder,On-Air,,Rocky Mountain Ham Radio,,,2016-12-31,,,,Linked on Time Slot 2 to Almagre Mtn (446.950).,,,,,,,,,yes,7,,,,,,"Full-time to 446.95000 (K7PFJ) at Colorado Springs, Almagre Mountain, CO . Full-time to the Colorado TRBO System .",,,,,,,,,,,,,,,,,,,,,,,,,,,,,,,,,,,,,,,,,,,,
447.75,-5,141.3,N0SZ,"Boulder, Lee Hill",CO,OPEN,I,,172.35,WNW,,08,19,40.0722,-105.354,447.75,442.75,141.3,Boulder,On-Air,,Rocky Mountain Ham Radio,,CCARC,2018-04-24,,,,,3450,,141.3,,,,,,,,,,,,,,,,,,,,,,,,,,,,,,,,,,,,,,,,,,,,,,,,,,,,,,,,,
145.46,-0.6,107.2,W0CRA,"Boulder, Eldorado Mountain",CO,OPEN,EI,,172.35,WNW,ON - IDLE,08,8,40.0722,-105.354,145.46,144.86,107.2,Boulder,On-Air,Boulder/Denver Metro,Colorado Repeater Association (CRA),347086,CCARC,2017-11-13,,,,"Closed autopatch, e-power.",3990,,107.2,,CRA VHF Link System,,,,,,,,,,,"Full-time to 145.16000 (W0CRA) at Colorado Springs, Cheyenne Mountain, CO . Full-time to 147.22500 (W0CRA) at Larkspur, Westcreek, CO .",Member-only IRLP and Echolink node,,,,,,,,,,,,,,,,,,,,,,,,,,,,,,,,,,,,,,,,,,,
447.975,-5,107.2,W0CRA,"Boulder, Eldorado Mountain",CO,OPEN,,,172.35,WNW,,08,20,40.0722,-105.354,447.975,442.975,107.2,Boulder,On-Air,Wide area: Boulder/Longmont area.,Colorado Repeater Association (CRA),,CCARC,2016-09-08,,,,Closed autopatch.,,,107.2,,,,,,,,,,,,,,,,,,,,,,,,,,,,,,,,,,,,,,,,,,,,,,,,,,,,,,,,,
224.02,-1.6,,W0IA,"Boulder, Lee Hill",CO,OPEN,E,,172.35,WNW,ON - IDLE,08,18,40.0722,-105.354,224.02,222.42,,Boulder,On-Air,Denver metro area.,Rocky Mtn VHF Soc,217336,CCARC,2017-03-11,,,,8,,,,,,RMVHS repeaters,,,,,,,,,,"Full-time to 449.55000 (W0IA) at Boulder, CO .",,,,,,,,,,,,,,,,,,,,,,,,,,,,,,,,,,,,,,,,,,,,
147.36,0.6,100,W0QEY,"Fort Collins, CSU Durward Hall",CO,OPEN,,,172.52,WNW,,08,125,40.5708,-105.077,147.36,147.96,100,Larimer,On-Air,Map,CO State Univ ARC,,CCARC,2017-03-11,,,,Closed autopatch.,,,100,,,,,,,,,,,,,,,,,,,,,,,,,,,,,,,,,,,,,,,,,,,,,,,,,,,,,,,,,
927.7,-25,D114,KB0TUC,"Canon City, Fremont Peak",CO,OPEN,,,172.63,WSW,,08,278,38.4539,-105.286,927.7,902.7,D114,Fremont,On-Air,,Royal Gorge ARC,,CCARC,2017-03-11,,,,,,,D114,,,,,,,,,,,,,,,,,,,,,,,,,,,,,,,,,,,,,,,,,,,,,,,,,,,,,,,,,
145.31,-0.6,88.5,KB0VJJ,"Boulder, Thorodin Mountain",CO,OPEN,,,172.81,WNW,,08,72,39.8875,-105.426,145.31,144.71,88.5,Gilpin,On-Air,"Wide area: Cheyenne, Wyoming to the north, Monument, Colorado to the south, Limon, Colorado to the east, and the continental divide to the west.",Colorado Connection,,CCARC,2019-08-15,,,,10,,"Split tone. The repeater still transmits 123.0 for those wishing to use tone squelch, you must run a split tone 88.5 TX and 123.0 RX",123,,,,,Colorado Traffic Net: Daily at 19:30. Colorado Connection Net (all welcome): Thu at 20:00. Statewide ARES: Sun at 20:00.,,,,,,,,Full-time to the Colorado Connection System .,,,,,,,,,,,,,,,,,,,,,,,,,,,,,,,,,,,,,,,,,,,,
449.225,-5,141.3,N0SZ,"Denver, Thorodin Mountain",CO,OPEN,,,172.81,WNW,,08,97,39.8875,-105.426,449.225,444.225,141.3,Gilpin,On-Air,Wide area.,Rocky Mountain Ham Radio (RMHR),,CCARC,2015-11-03,,,,Emergency Power,,"Emcomm Affiliated, Open repeater",141.3,,,,,,,,,,,,,,,,,,,,,,,,,,,,,,,,,,,,,,,,,,,,,,,,,,,,,,,,,
446.7375,-5,CC,K0JSC,"Canon City, Fremont Peak",CO,OPEN,,D,172.82,WSW,,08,7184,38.4542,-105.29,446.7375,441.7375,,Fremont,On-Air,Fremont county and state wide on Talk Slot 2. 40 mi radius. Repeater Coverage Map,,,CCARC,2017-03-11,,,,IPSC Link to the Colorado network on Talk Slot 2.,,Talk Slot 2 linked to the RMHAM trbo system/Talk Slot 1 Local.,,,Rocky Mountain Ham Radio,http://www.k0jsc.com,,,yes,7,,"Open Talkgroup View Assignment TS TG Access Rocky Mountain Wide 1 700 Southern Colorado 2 719 function myFunction(id) { var x = document.getElementById(id); if (x.className.indexOf(""w3-show"") == -1) { x.className += "" w3-show""; } else { x.className = x.className.replace("" w3-show"", """"); } }",1,,,Full-time to the Colorado TRBO System .,,,,DM78ii,,,,,,,,,,,,,,,,,,,2,,,,,,,,,,,,,,,,,,,yes,,
447.25,-5,100,K0JSC,"Canon City, Fremont Peak",CO,OPEN,EIA,,172.82,WSW,ON - IDLE,08,8879,38.4542,-105.29,447.25,442.25,100,Fremont,On-Air,Wide from Custer County to Park County and Chaffee County to Pueblo County. Repeater Coverage Map,,363976,CCARC,2013-01-27,,,,,7301,,100,,,K0JSC dot Com,28368,Region 2 District 2 ARES Net: Tue at 19:00. EOSS Net: Tue at 20:00. RGARC Net: Wed at 19:00. Region 5 District 1 ARES Net: Wed at 19:30. APRS Net: Sun at 19:00. Region 5 District 2 ARES Net: Sun at 19:30. Statewide ARES Net: Sun at 20:00.,,,,,,,,Full-time to the The Fun Machine System .,,,,DM78ik,,,Listen Live,,,,,,,,,,,,,,,,,,,,,,,,,,,,,,,,,,,yes,,
53.03,-1.7,88.5,WB0WDF,"Canon City, Fremont Peak",CO,OPEN,,,172.82,WSW,,08,29,38.4542,-105.29,53.03,51.33,88.5,Fremont,On-Air,,WB0WDF,,CCARC,2012-07-10,,,,"E-power (Bat). Split Site; TX Fremont Peak, RX 8 Mile Mountain",,Split site Fremont peak transmitter and 8 mile mountain reciever.,88.5,,RGARC,Http://www.qsl.net/rghc,,,,,,,,,,,,,,,,,,,,,,,,,,,,,,,,,,,,,,,,,,,,,,,,,,,,,,
145.49,-0.6,103.5,WD0EKR,"Canon City, Fremont Peak",CO,OPEN,,,172.82,WSW,,08,30,38.4542,-105.29,145.49,144.89,103.5,Fremont,On-Air,,Royal Gorge Amateur Radio Club,,CCARC,2017-03-11,,,,E-power (Bat),,,103.5,,Colorado ARES Region 5 District 1,Royal Gorge Amateur Radio Club,,RGARC Net: Wed at 19:00. ARES Net: Wed at 19:30.,,,,,,,,,,,,DM78ik,,,,,,,,,,,,,,,,,,,,,,,,,,,,,,,,,,,,,,yes,,
223.96,-1.6,103.5,WD0EKR,"Canon City, Fremont Peak",CO,OPEN,,,172.82,WSW,,08,31,38.4542,-105.29,223.96,222.36,103.5,Fremont,On-Air,Wide area. Repeater Coverage Map,RGARC,,CCARC,2017-10-04,,,,"E-power (Bat), Remote Base",,,103.5,,,,,,,,,,,,,,,,,,,,,,,,,,,,,,,,,,,,,,,,,,,,,,,,,,,,,,,yes,,
447.75,-5,103.5,WD0EKR,"Canon City, Fremont Peak",CO,OPEN,I,,172.82,WSW,,08,32,38.4542,-105.29,447.75,442.75,103.5,Fremont,On-Air,,RGARC,,CCARC,2017-03-11,,,,E-power (Bat),3081,,103.5,,,Royal Gorge Amateur Radio Club,,,,,,,,,,,,,,,,,,,,,,,,,,,,,,,,,,,,,,,,,,,,,,,,,,,,yes,,
444.55,5,141.3,K0ECT,Dodge City,KS,OPEN,,,172.92,SE,,20,4114,37.5312,-100.017,444.55,449.55,141.3,Ford,On-Air,,SKECT,,Kansas Repeater Council,2018-07-12,,,,,,,,,,http://skect.org/default.aspx,,,,,,,,,,Full-time to the SKECT System .,,,,,,,,,,,,,,,,,,,,,,,,,,,,,,,,,,,,,,,,,,,,
449,-5,136.5,WR0AEN,"Idaho Springs, Squaw Mountain",CO,OPEN,,,173.09,W,,08,8250,39.6732,-105.48,449,444,136.5,Clear Creek,On-Air,,CARN,,CCARC,2017-03-11,,,,,,,136.5,,,,,,,,,,,,,,,,,,,,,,,,,,,,,,,,,,,,,,,,,,,,,,,,,,,,,,,,,
449.85,-5,100,W0QEY,"Fort Collins, CSU Durward Hall",CO,OPEN,,,173.34,WNW,,08,124,40.5853,-105.084,449.85,444.85,100,Larimer,On-Air,Map,CO State Univ ARC,,CCARC,2012-11-16,,,,Closed autopatch.,,,100,,,,,,,,,,,,,,,,,,,,,,,,,,,,,,,,,,,,,,,,,,,,,,,,,,,,,,,,,
927.95,-25,100,W0QEY,"Fort Collins, CSU Durward Hall",CO,OPEN,,,173.34,WNW,,08,3592,40.5853,-105.084,927.95,902.95,100,Larimer,On-Air,Northern Front Range,,,CCARC,2019-09-01,,,,,,,100,,,,,,,,,,,,,,,,,,,,,,,,,,,,,,,,,,,,,,,,,,,,,,,,,,,,,,,,,
446.7625,-5,CC,W0QEY,"Fort Collins, CSU Durward Hall",CO,OPEN,,D,173.48,WNW,,08,18416,40.57759857,-105.09300232,446.7625,441.7625,,Larimer,On-Air,,RMHAM,,,2020-02-10,,,,,,,,,CSUARC,https://www.rmham.org/wordpress/dmr-radio-site-information/,,Red Cross Net on Wide - Third Thursday of the month at 1900 Tech Net on Wide - First Saturday of the month at 1900,yes,8,,,,,,,,c Record retrieved from radioid.net,,,,,,,,,,,,,,,,,,,,,,,,,,,,,,,,,,,,,,,,,,
446.7625,-5,CC,W0QEY,"Fort Collins, CSU Durward Hall",CO,OPEN,,D,173.48,WNW,,08,18417,40.57759857,-105.09300232,446.7625,441.7625,,Larimer,On-Air,,RMHAM,,,2020-02-10,,,,,,,,,CSUARC,https://www.rmham.org/wordpress/dmr-radio-site-information/,,Red Cross Net on Wide - Third Thursday of the month at 1900 Tech Net on Wide - First Saturday of the month at 1900,yes,8,,,,,,,,c Record retrieved from radioid.net,,,,,,,,,,,,,,,,,,,,,,,,,,,,,,,,,,,,,,,,,,
446.8125,-5,,W0QEY,"Fort Collins, CSU Durward Hall",CO,OPEN,,S,173.49,WNW,,08,8901,40.5777,-105.093,446.8125,441.8125,,Larimer,On-Air,Fort Collins Local Area,W0QEY CSU,,CCARC,2017-05-31,,,,D-Star Gateway,,Free Star,,,,,,,,,,,,,,,,,,,,,,,,,yes,W0QEY (B) Repeater,jfindu lookup / dstar-users lookup,,,,,,,,,,,,,,,,,,,,,,,,,,,,,,,
147.3,0.6,103.5,N0PYY,"Evergreen, Squaw Mountain",CO,OPEN,,,173.5,W,,08,84,39.6781,-105.487,147.3,147.9,103.5,Clear Creek,On-Air,Wide area.,Denver PD EEB,,CCARC,2017-03-11,,,,,,,103.5,,,,,,,,,,,,,,,,,,,,,,,,,,,,,,,,,,,,,,,,,,,,,,,,,,,,,,,,,
448.675,-5,100,W0CFI,"Idaho Springs, Squaw Mountain",CO,OPEN,,,173.55,W,,08,94,39.6774,-105.488,448.675,443.675,100,Denver,On-Air,Wide area.,W0CFI,,CCARC,2015-04-03,,,,,,,100,,,,,,,,,,,,,,,,,,,,,,,,,,,,,,,,,,,,,,,,,,,,,,,,,,,,,,,,,
146.67,-0.6,100,KB0UDD,"Idaho Springs, Squaw Mountain",CO,OPEN,,,173.77,W,,08,78,39.6794,-105.492,146.67,146.07,100,Clear Creek,On-Air,"North to Cheyenne, Wy - East to Limon, Co - South to Colorado Springs, Co and West to the Continental Divide.",Castle Rock Repeater Group,,CCARC,2016-09-08,,,,11,,,100,,,,,CRRG/QCWA: Sun at 0930. Southern Metro LDS Ham Group: Sun at 1900. ARES23: Thu at 1930. ARES13: Sun at 2000.,,,,,,,,,,,,,,,,,,,,,,,,,,,,,,,,,,,,,,,,,,,,,,,,,,,,
145.145,-0.6,107.2,W0CRA,"Idaho Springs, Squaw Mountain",CO,OPEN,,,173.77,W,,08,107,39.6794,-105.492,145.145,144.545,107.2,Clear Creek,On-Air,Wide area. Denver metro.,Colorado Repeater Assoc,,CCARC,2018-07-23,,,,E-power.,,,107.2,,,http://www.w0cra.org/info/squaw.html#145145,,,,,,,,,,,,,,,,,,,,,,,,,,,,,,,,,,,,,,,,,,,,,,,,,,,,,,
447.575,-5,107.2,W0CRA,"Idaho Springs, Squaw Mountain",CO,OPEN,EI,,173.77,W,Node Offline,08,264,39.6794,-105.492,447.575,442.575,107.2,Clear Creek,On-Air,Wide area: Denver metro.,Colorado Repeater Association (CRA),347088,CCARC,2017-11-13,,,,,3291,,107.2,,,http://www.w0cra.org,,,,,,,,,,,Member-only IRLP and Echolink node,,,,,,,,,,,,,,,,,,,,,,,,,,,,,,,,,,,,,,,,,,,
145.49,-0.6,100,W0TX,"Idaho Springs, Centennial Cone",CO,OPEN,,,173.77,W,,08,76,39.6794,-105.492,145.49,144.89,100,Jefferson,On-Air,,"KB0VIU, Denver Radio Club",,CCARC,2017-03-11,,,,E-power.,,,100,,,DRC Repeaters,,DRC: Sun at 20:30.,,,,,,,,"Full-time to 448.62500 (W0TX) at Golden, Centennial Cone, CO .",,,,,,,,,,,,,,,,,,,,,,,,,,,,,,,,,,,,,,,,,,,,
