Frequency,Offset,Tone,Call,Location,ST/PR,Use,VOIP,DGTL,Mi,Dir,,state_id,ID,Latitude,Longitude,Downlink,Uplink,Uplink Tone,Downlink Tone,County,Op Status,Sponsor,Coordination,Last update,D-STAR Enabled,Node,Sources,IRLP,Coverage,Features,Web links,Grid,EchoLink,AllStar,Commands,Mixed-Mode,Analog Bandwidth,YSF Digital Enabled,DG-ID,Affiliate,Notes,WIRES-X,Links,Nets,DMR Enabled,Color Code,DMR ID,IPSC Network,Wide Network,On-air,Feed,P-25 Digital Enabled,NAC,Default Reflector,Local Network,RX Location,Gunbarrel,Lousville,Lyons,Louisville #2,Talkgroup Network,Talkgroups,Rocky Mountain Wide,Southern Colorado,Central Regional,Northern Colorado Regional,Devilshead Local,NXDN Enabled,RAN,NXDN Bandwidth,Worldwide,North America,WW English FT,TAC 310,Local/Cluster,N. Colorado,DCI Bridge,Mountain Reg USA,Worldwide English FT,Colorado,Bandwidth,Eastern Colorado,TAC 311,Colorado Chat,Location Photo,Wyoming,WyLOCAL
447.925,-5,100,K0FEZ,Denver,CO,OPEN,,,0.29,SE,,08,8196,39.73759842,-104.98500061,447.925,442.925,100,100,Denver,On-Air,RADOPS El Jebel Shriners,CCARC,2014-07-03,,,,,,,,,,,,,,,,,,,,,,,,,,,,,,,,,,,,,,,,,,,,,,,,,,,,,,,,,,,,,,,
447.9,-5,CSQ,WB0TPT,Denver,CO,OPEN,,,0.29,SE,,08,8195,39.73759842,-104.98500061,447.9,442.9,CSQ,,Denver,On-Air,WB0TPT,CCARC,2017-03-11,,,,,,,,,,,,,,,,,,,,,,,,,,,,,,,,,,,,,,,,,,,,,,,,,,,,,,,,,,,,,,,
449.65,-5,136.5,WR0AEN,Denver,CO,OPEN,,S,0.29,SE,,08,8212,39.73759842,-104.98500061,449.65,444.65,,,Denver,On-Air,Colorado Amateur Repeater Network (CARN),CCARC,2012-11-16,yes,WR0AEN (B),jfindu lookup / dstar-users lookup,,,,,,,,,,,,,,,,,,,,,,,,,,,,,,,,,,,,,,,,,,,,,,,,,,,,,,,,,,,,
449.675,-5,136.5,WR0AEN,Denver,CO,OPEN,I,S,0.29,SE,,08,8213,39.73759842,-104.98500061,449.675,444.675,,,Denver,On-Air,Colorado Amateur Repeater Network (CARN),CCARC,2012-11-16,yes,WR0AEN (B),jfindu lookup / dstar-users lookup,7708,,,,,,,,,,,,,,,,,,,,,,,,,,,,,,,,,,,,,,,,,,,,,,,,,,,,,,,,,,,
145.475,-0.6,100,KE0SJ,"Boulder, Blue Mountain",CO,OPEN,,,0.32,ESE,,08,75,39.73920059,-104.98400116,145.475,144.875,100,,Jefferson,On-Air,Intermountain Repeater Group,CCARC,2015-05-22,,,,,"Wide Area: Ft. Collins to the North, Colorado Springs to the South, Parts of Akron to the east.",E-power.,Intermountain Repeater Group,,,,,,,,,,,,,,,,,,,,,,,,,,,,,,,,,,,,,,,,,,,,,,,,,,,,,,,,
146.715,-0.6,123,N0JXN,Denver,CO,OPEN,,,0.32,ESE,,08,79,39.73920059,-104.98400116,146.715,146.115,123,123,Denver,On-Air,EARS,CCARC,2017-04-09,,,,,,E-power.,,,,,,,,,,,,,,,,,,,,,,,,,,,,,,,,,,,,,,,,,,,,,,,,,,,,,,,,,
448.075,-5,123,N5EHP,Denver,CO,OPEN,,,0.32,ESE,,08,91,39.73920059,-104.98400116,448.075,443.075,123,,Denver,On-Air,W0IG,CCARC,2017-03-11,,,,,,,,,,,,,,,,,,,,,,,,,,,,,,,,,,,,,,,,,,,,,,,,,,,,,,,,,,,,,,,
448.55,-5,82.5,W0KIZ,Denver,CO,OPEN,,,0.32,ESE,,08,93,39.73920059,-104.98400116,448.55,443.55,82.5,,Denver,On-Air,HPRA,CCARC,2017-03-11,,,,,,E-power.,,,,,,,,,,,,,,,,,,,,,,,,,,,,,,,,,,,,,,,,,,,,,,,,,,,,,,,,,
447.175,-5,100,W0JRL,"Denver, Broadway Plaza Lofts",CO,OPEN,EA,,1.12,N,ON - IDLE,08,12216,39.75519943,-104.98699951,447.175,442.175,100,100,Denver,On-Air,W0JRL,CCARC,2015-05-15,,,,,,,,DM79MS,201712,29997,Standard AllStar Link access commands.,,,,,,,,,,,,,,,,,,,,,,,,,,,,,,,,,,,,,,,,,,,,,,,,,,,,
147.21,0.6,100,KD0SSP,"Lakewood, Moffat Treatment Plant",CO,OPEN,I,,7.11,W,,08,9775,39.75049973,-105.1230011,147.21,147.81,100,100,Jefferson,On-Air,Denver Water Amateur Radio Club,,2020-01-23,,,,3241,,,http://www.dwarc.com,DM79KS,,,,Yes; analog capable.,,,,,,,,,,,,,,,,,,,,,,,,,,,,,,,,,,,,,,,,,,,,,,,,,,,
448.35,-5,225.7,KD0SSP,"Lakewood, Moffat Treatment Plant",CO,OPEN,,Y,7.11,W,,08,17349,39.75059891,-105.1230011,448.35,443.35,,,Jefferson,On-Air,Denver Water Amateur Radio Club (DWARC),CCARC,2018-10-02,,,,,Denver Metro and surrounding,,http://www.DWARC.com,,,,,,,yes,Open ↑ / Open ↓,,,,,,,,,,,,,,,,,,,,,,,,,,,,,,,,,,,,,,,,,,,,,,,,
449.3,-5,100,N1UPS,Westminster,CO,OPEN,EI,,7.18,NNW,ON - IDLE,08,8208,39.83670044,-105.03700256,449.3,444.3,100,,Adams,On-Air,N1UPS,CCARC,2020-04-23,,,,3699,,,,,43699,,,,,,,,,,,,,,,,,,,,,,,,,,,,,,,,,,,,,,,,,,,,,,,,,,,,,,
448.75,-5,100,N0ELY,Lakewood,CO,OPEN,,,7.46,WSW,,08,8204,39.70460129,-105.1230011,448.75,443.75,100,100,Jefferson,On-Air,,CCARC,2019-08-23,,,,,Local.,E-power.,,DM79KQ,,,,,,,,N0ELY,,,,,,,,,,,,,,,,,,,,,,,,,,,,,,,,,,,,,,,,,,,,,,,
447.825,-5,D073,W0TX,"Lakewood, St Anthony Medical Campus",CO,OPEN,,,7.61,WSW,,08,5805,39.71620178,-105.12999725,447.825,442.825,D073,,Jefferson,On-Air,Denver Radio Club,CCARC,2017-03-11,,,,,,,,DM79KR,,,,,,,,,Now operating in Narrow Band mode with Digital Code Squelch. Please reset your programing to use: 12.5 KHz. bandwidth (+/- 2.5 KHz. deviation).,,,,,,,,,,,,,,,,,,,,,,,,,,,,,,,,,,,,,,,,,,,,,,
448.4,-5,94.8,N0ZUQ,Aurora,CO,OPEN,,,8.42,ESE,,08,8202,39.72940063,-104.83200073,448.4,443.4,94.8,,Arapahoe,On-Air,,CCARC,2012-11-12,,,,,,,,,,,,,,,,,,,,,,,,,,,,,,,,,,,,,,,,,,,,,,,,,,,,,,,,,,,,,,,
448.275,-5,156.7,W0BG,Aurora,CO,OPEN,,,8.42,ESE,,08,8199,39.72940063,-104.83200073,448.275,443.275,156.7,,Arapahoe,On-Air,W0BG,CCARC,2013-01-05,,,,,,,,,,,,,,,,,,,,,,,,,,,,,,,,,,,,,,,,,,,,,,,,,,,,,,,,,,,,,,,
449.95,-5,77,W9SL,Aurora,CO,OPEN,,,8.42,ESE,,08,8743,39.72940063,-104.83200073,449.95,444.95,77,77,Arapahoe,On-Air,W9SL Owner,CCARC,2019-08-23,,,,,Primarily to the North along I-25 corridor,,,,,,,,,,,,,,,,,,,,,,,,,,,,,,,,,,,,,,,,,,,,,,,,,,,,,,,,,,
448.825,-5,,WN7ANT,Aurora,CO,OPEN,W,Y,8.42,ESE,,08,16032,39.72940063,-104.83200073,448.825,443.825,,,Arapahoe,On-Air,,,2017-12-13,,,,,,,,,,,,,,yes,Open ↑ / Open ↓,,,30584,,,,,,,,,,,,,,,,,,,,,,,,,,,,,,,,,,,,,,,,,,,,,
448.5,-5,100,KB0UDD,"Aurora, Smokey Hill",CO,OPEN,,,8.48,ESE,,08,92,39.72940063,-104.83100128,448.5,443.5,100,,Denver,On-Air,Castle Rock Repeater Group,CCARC,2017-03-11,,,,,Greater Denver area.,E-power.,,,,,,,,,,,,,"Full-time to 145.40000 (KB0UDD) at Aurora, Smoky Hill, CO .",,,,,,,,,,,,,,,,,,,,,,,,,,,,,,,,,,,,,,,,,,,,
147.33,0.6,100,W0TX,"Lakewood, Green Mountain",CO,OPEN,,,9.04,WSW,,08,85,39.68220139,-105.14299774,147.33,147.93,100,,Jefferson,On-Air,Denver Radio Club,CCARC,2017-03-31,,,,,Metro Denver and the foothills.,E-power.,DRC Repeaters,,,,,,,,,,Not recommeded to use tone squelch on this repeater.,,,SATERN: Thu at 19:30.,,,,,,,,,,,,,,,,,,,,,,,,,,,,,,,,,,,,,,,,,,,
224.38,-1.6,100,W0TX,"Lakewood, Green Mountain",CO,OPEN,,,9.04,WSW,,08,267,39.68220139,-105.14299774,224.38,222.78,100,100,Jefferson,On-Air,Denver Radio Club,CCARC,2017-03-11,,,,,,,DRC Repeaters,,,,,,,,,,,,,,,,,,,,,,,,,,,,,,,,,,,,,,,,,,,,,,,,,,,,,,,,
449.775,-5,CSQ,W0TX,"Lakewood, Green Mtn",CO,OPEN,,Y,9.04,WSW,,08,8215,39.68220139,-105.14299774,449.775,444.775,,,Jefferson,On-Air,Denver Radio Club,CCARC,2019-09-06,,,,,Metro Denver,Yaesu Digital Only,Denver Radio Club,DM79KQ,,,,,,yes,Open ↑ / Open ↓,,"YSF digital only, no analog FM",,,,,,,,,,,,,,,,,,,,,,,,,,,,,,,,,,,,,,,,,,,,,,
449.15,-5,136.5,WR0AEN,Aurora,CO,OPEN,,S,10.01,SE,,08,8207,39.69670105,-104.80999756,449.15,444.15,,,Arapahoe,On-Air,Colorado Amateur Repeater Network (CARN),CCARC,2012-11-12,yes,WR0AEN (B),jfindu lookup / dstar-users lookup,,,,,,,,,,,,,,,,,,,,,,,,,,,,,,,,,,,,,,,,,,,,,,,,,,,,,,,,,,,,
147.045,0.6,123,K0ML,Northglenn,CO,OPEN,,,10.12,N,,08,185,39.88560104,-104.98699951,147.045,147.645,123,,Adams,On-Air,Northglenn RA,CCARC,2017-04-10,,,,,,E-power.,,,,,,,,,,,,,,,,,,,,,,,,,,,,,,,,,,,,,,,,,,,,,,,,,,,,,,,,,
53.09,-1.7,107.2,W0TX,"Lakewood, Green Mountain",CO,OPEN,,,10.34,WSW,,08,105,39.70080185,-105.1780014,53.09,51.39,107.2,,Jefferson,On-Air,Denver Radio Club,CCARC,2017-03-11,,,,,Metro Denver area.,E-power.,DRC Repeaters,DM79JQ,,,,,,,,,,,,,,,,,,,,,,,,,,,,,,,,,,,,,,,,,,,,,,,,,,,,,,,
448.125,-5,107.2,N0PYY,Golden,CO,OPEN,,,12.32,W,,08,143,39.75559998,-105.22100067,448.125,443.125,107.2,,Jefferson,On-Air,Denver PD EEB,CCARC,2014-04-28,,,,,,,,,,,,,,,,,,,,,,,,,,,,,,,,,,,,,,,,,,,,,,,,,,,,,,,,,,,,,,,
927.7875,-25,156.7,N0PYY,Golden,CO,OPEN,,,12.32,W,,08,7170,39.75550079,-105.22100067,927.7875,902.7875,156.7,,Jefferson,On-Air,N0PYY,,2017-12-24,,,,,Golden and Denver.,,,,,,,,,,,,,,,,,,,,,,,,,,,,,,,,,,,,,,,,,,,,,,,,,,,,,,,,,,
448.975,-5,123,W0GV,Golden,CO,OPEN,A,,12.32,W,,08,137,39.75559998,-105.22100067,448.975,443.975,123,,Jefferson,On-Air,FRG,CCARC,2019-09-06,,,,,Wide area.,Linkable VHF/UHF Remote Base,,,,42845,,,,,,,,,,,,,,,,,,,,,,,,,,,,,,,,,,,,,,,,,,,,,,,,,,,,,
446.975,-5,CC,KB0VGD,"Golden, Table Mountain",CO,OPEN,,D,12.41,WNW,"KB0VGD North Table Mtn. Golden Wide area coverage. Please use ONLY TG 310811, TG 3171, TG 3108, and TG 2 (Local 2) on Time Slot 2 (TS2). ALL OTHER TG connections will be directed to Time Slot 1 (TS1).",08,14273,39.7845993,-105.21600342,446.975,441.975,,,Jefferson,On-Air,W0DMR,,2019-11-27,,,,,Denver Metro Area,,http://www.w0dmr.org/,,,,"TS 1, CC 2: TG 3171 - Northern Colorado Network, TG 3100 - DCI Bridge, TG 1776 - USA Network, TG 310 - Tac 310. TS 2, CC 2: TG 2 - Local",,,,,,,,,"Tac 310 Net, Sundays 18:00 Mountain Time, TS1, TG 310.",yes,2,310811,NoCo c Record retrieved from radioid.net,,,,,,,,,,,,,,,,,,,,,,,,,,,,,,,,,,,,,,,
147.315,0.6,CC,N0KEG,Centennial,CO,OPEN,,DS,12.49,SSE,"Colorado Mega Reflector - XLX376 Transcoder - YSF 23160 - WiresX 40895 Welcome to the new and improved Colorado Mega Link! Brought to you by the Parker Radio Association, where we have fun, play radio and keep the squelch loose. Please join us Monday nights at 8pm mountain time our our digital net.",08,17676,39.58069992,-104.8769989,147.315,147.915,,,Arapahoe,,N0KEG,,2019-11-27,yes,N0KEG (C) Repeater,jfindu lookup / dstar-users lookup,,"Southeast metro Denver area. Parker, Centennial, SE Aurora, Elizabeth, Franktown, Castle Rock.",,https://www.parkerradio.org,,,,,,,,,Parker Radio Association,,,,Monday 8pm. Colorado Link Digital Net. Repeater is used in DSTAR mode for this net.,yes,1,310759,Brandmeister c Record retrieved from radioid.net,,Unknown,,,,,,,,,,,,,,,,,,,,,,,,,,,,,,,,,,,,,
446.8375,-5,CC,WA2YZT,"Golden, Lookout",CO,OPEN,,D,12.87,W,,08,3753,39.73049927,-105.23200226,446.8375,441.8375,,,Jefferson,On-Air,WA2YZT,CCARC,2019-11-27,,,,,,200,,DM79JR,,,,,,,,,See website for more info on CC/TS/TG programming. www.rmham.org,,Full-time to the Colorado TRBO System .,,yes,7,310802,RMHR c Record retrieved from radioid.net,,,,,,,,,,,,,,,,,,,,,,,,,,,,,,,,,,,,,,,
145.37,-0.6,CC,N0SZ,"Golden, Lookout Mountain",CO,OPEN,,D,12.93,W,,08,10939,39.73070145,-105.23300171,145.37,144.77,,,Jefferson,On-Air,Rocky Mountain Ham Radio,CCARC,2019-11-27,,,,,,700,Rocky Mountain Ham Radio,DM79JR,,,,,,,,,See the website for programming information. Voice ID is required for data/GPS/text on TG 705,,,,yes,7,310808,RMHR c Record retrieved from radioid.net,,,,,,,,,,,,,,,,,,,,,,,,,,,,,,,,,,,,,,,
53.17,-0.5,107.2,N6LXX,"Morrison, Mt. Morrison",CO,OPEN,A,,12.95,WSW,,08,10514,39.67340088,-105.21800232,53.17,52.67,107.2,,Jefferson,On-Air,N6LXX,CCARC,2019-03-25,,,,,"I-70,I-76,I-25,I-225",,,,,29883,,,,,,N6LXX,,,Full-time to the N6LXX System .,,,,,,,,,,,,,,,,,,,,,,,,,,,,,,,,,,,,,,,,,,,,
447.875,-5,107.2,N6LXX,"Morrison, Mt. Morrison",CO,OPEN,A,,12.95,WSW,,08,10513,39.67340088,-105.21800232,447.875,442.875,107.2,107.2,Jefferson,On-Air,N6LXX,CCARC,2017-03-09,,,,,"I-70,I-76,I-25,I-225",,,,,29913,,,,,,N6LXX,,,Full-time to the N6LXX System .,,,,,,,,,,,,,,,,,,,,,,,,,,,,,,,,,,,,,,,,,,,,
927.975,-25.9,67,W0SKY,"Golden, Lookout Mountain",CO,OPEN,A,,13.13,W,,08,18156,39.73329926,-105.23699951,927.975,902.0375,67,67,Jefferson,On-Air,,CCARC,2020-01-01,,,,,"Denver, Golden",,http://www.w0sky.com,,,40195,Standard AllStar,,,,,,,,,,,,,,,,,,,,,,,,,,,,,,,,,,,,,,,,,,,,,,,,,,,,
449.625,-5,141.3,KE0VH,"Golden, Lookout Mountain",CO,OPEN,,Y,13.24,W,,08,139,39.73300171,-105.23899841,449.625,444.625,141.3,141.3,Jefferson,On-Air,,CCARC,2019-06-19,,,,,,E-power,,DM79JR,,,,Yes; analog capable.,,yes,Open ↑ / Open ↓,,,,,,,,,,,,,,,,,,,,,,,,,,,,,,,,,,,,,,,,,,,,,,,,
448.15,-5,141.3,WE0FUN,"Denver, Green Valley Ranch",CO,OPEN,EA,,13.45,E,Node Offline,08,9765,39.79669952,-104.7480011,448.15,443.15,141.3,141.3,Denver,On-Air,K0GUR,CCARC,2020-04-01,,,,,Small coverage of the East Denver area SW of DIA. Repeater Coverage Map,E-power (batt),WE0FUN.com,DM79pt,24340,29436,,,,,,,Echolink connects restricted. Email me to be added to the authorized list. The system may be occupied in the Southern Colorado area for a formal net or ARES activity.,,Full-time to the The Fun Machine System .,APRS Net: Sun at 19:00. Region 5 District 2 ARES Net: Sun at 19:30. Statewide ARES Net: Sun at 20:00. Region 5 District 1 ARES Net: Mon at 19:00.,,,,,,,Listen Live,,,,,,,,,,,,,,,,,,,,,,,,,,,,,,,,,,,,
448.925,-5,131.8,W0LMA,Broomfield,CO,OPEN,,,13.53,NNW,,08,26,39.92060089,-105.08599854,448.925,443.925,131.8,,Boulder,On-Air,W0LMA,CCARC,2019-06-19,,,,,,,,,,,,,,,,,,,,,,,,,,,,,,,,,,,,,,,,,,,,,,,,,,,,,,,,,,,,,,,
449.825,-5,103.5,W0WYX,Broomfield,CO,OPEN,,,13.53,NNW,,08,266,39.92060089,-105.08599854,449.825,444.825,103.5,,Boulder,On-Air,Rocky Mountain Radio League,CCARC,2019-06-19,,,,,Along the foothills and into Boulder where the 94 repeater is shadowed.,6,Repeater,,,,,,,,,,,,,Colorado WX: Daily at 06:30. RMRL: Mod at 20:30. Astronomy: Tue at 19:00. Amateur Radio Events: Tue at 20:00.,,,,,,,,,,,,,,,,,,,,,,,,,,,,,,,,,,,,,,,,,,,
145.19,-0.6,131.8,N0OBA,Aurora,CO,OPEN,,,14.53,SE,,08,8741,39.62799835,-104.75800323,145.19,144.59,131.8,131.8,Arapahoe,On-Air,N0OBA,,2020-05-11,,,,,"Aurora, Littleton, Denver, Morrison, North Colorado Springs to as far as Ft. Collins. 65 mi radius.",Autopatch (please contact trustee).,,DM79OP,,,,,,,,,,,,,,,,,,,,,,,,,,,,,,,,,,,,,,,,,,,,,,,,,,,,,,,
927.9375,-25.9,,KI0HC,"Indian Hills, Chief Mtn",CO,OPEN,,,15.15,SW,,08,17457,39.59999847,-105.20999908,927.9375,902.025,,,Jefferson,On-Air,,CCARC,2020-01-01,,,,,"Wide area coverage, I 25 from Cheyenne south to MM 20 just north of Trinidad. I 76 East to MM 100. I 70 from Idaho Springs to Genoa. Highway 24 from the Colorado Springs to Limon. Highway 24 west of Colorado Springs is spotty to Hartsel. US 50 from Canon City to Las Animas. Salida south to the San Luis Valley to Antonito. Salida North to just south of Leadville. Repeater Coverage Map",,,,,,,,,,,,,,Full-time to the The 900 P25 Network System .,,,,,,,,,yes,293,yes,,,,,,,,,,,,,,,,,,,,,,,,,,,,,,,,,
145.4,-0.6,100,KB0UDD,"Aurora, Smoky Hill",CO,OPEN,,,16.08,SE,,08,5,39.6072998,-104.74099731,145.4,144.8,100,,Arapahoe,On-Air,Castle Rock Repeater Group,CCARC,2019-03-09,,,,,Greater Denver area.,"Autopatch, e-power.",,,,,,,,,,,,,"Full-time to 448.50000 (KB0UDD) at Aurora, Smokey Hill, CO .",,,,,,,,,,,,,,,,,,,,,,,,,,,,,,,,,,,,,,,,,,,,
448.7,-5,146.2,WQ8M,Parker,CO,OPEN,,,16.29,SE,,08,274,39.55799866,-104.79399872,448.7,443.7,146.2,,Douglas,On-Air,,,2018-09-07,,,,,Local North Parker only,,,,,,,,,,,,,,,,,,,,,,,,,,,,,,,,,,,,,,,,,,,,,,,,,,,,,,,,,,
146.88,-0.6,100,N0PUF,"Centennial, Warren Mountain",CO,OPEN,,,17.82,SSW,,08,80,39.50419998,-105.12799835,146.88,146.28,100,,Jefferson,On-Air,Denver Radio League,CCARC,2020-03-13,,,,,Wide Area,E-power.,DRL Repeaters,,,,,,,,,,6,,,,,,,,,,,,,,,,,,,,,,,,,,,,,,,,,,,,,,,,,,,,,,
449.6,-5,100,N0PUF,"Centennial, Warren Mountain",CO,OPEN,EI,Y,17.82,SSW,Node Offline,08,273,39.50419998,-105.12799835,449.6,444.6,,,Jefferson,On-Air,Denver Radio League,CCARC,2020-03-13,,,,3345,,,DRL Repeaters,,690473,,,,,yes,Open ↑ / Open ↓,,,,,,,,,,,,,,,,,,,,,,,,,,,,,,,,,,,,,,,,,,,,,,,,
449.75,-5,103.5,KI0GO,"Golden, Guy Hill",CO,OPEN,,,18.15,W,,08,265,39.77719879,-105.32800293,449.75,444.75,103.5,103.5,Jefferson,On-Air,Rocky Mtn Radio League,CCARC,2016-12-23,,,,,,8,Repeater,,,,,,,,,,,,,,,,,,,,,,,,,,,,,,,,,,,,,,,,,,,,,,,,,,,,,,,,
224.74,-1.6,88.5,N0POH,"Golden, Guy Hill",CO,OPEN,,,18.15,W,,08,134,39.77719879,-105.32800293,224.74,223.14,88.5,88.5,Jefferson,On-Air,Aurora Repeater Assoc,CCARC,2016-01-17,,,,,,e-power,ARA Repeaters,,,,,,,,,,,,,ARA: Wed at 2000.,,,,,,,,,,,,,,,,,,,,,,,,,,,,,,,,,,,,,,,,,,,
145.22,-0.6,103.5,WT0C,"Golden, Guy Hill",CO,OPEN,,,18.15,W,,08,71,39.77719879,-105.32800293,145.22,144.62,103.5,103.5,Jefferson,On-Air,Rocky Mtn Radio League,CCARC,2016-12-23,,,,,Wide area.,8,Repeater,,,,,Yes; analog capable.,,,,,Talk-Group of $FFFF.,,,,,,,,,,,yes,293,yes,,,,,,,,,,,,,,,,,,,,,,,,,,,,,,,,,
448.85,-5,88.5,K0IBM,"Golden, Guy Hill",CO,OPEN,,,18.2,W,,08,136,39.77719879,-105.32900238,448.85,443.85,88.5,88.5,Jefferson,On-Air,Aurora Repeater Assoc,CCARC,2016-01-17,,,,,"Denver metro, central front range",e-power.,ARA Repeaters,DM79IS,,,,,,,,,,,,ARA: Wed at 20:00.,,,,,,,,,,,,,,,,,,,,,,,,,,,,,,,,,,,,,,,,,,,
224,-1.6,103.5,N0MHU,"Golden, Guy Hill",CO,OPEN,,,18.2,W,,08,86,39.77719879,-105.32900238,224,222.4,103.5,103.5,Jefferson,On-Air,Rocky Mountain Radio League,CCARC,2017-03-11,,,,,,8,Repeater,,,,,,,,,,,,,,,,,,,,,,,,,,,,,,,,,,,,,,,,,,,,,,,,,,,,,,,,
147.15,0.6,100,W0CBI,"Golden, Guy Hill",CO,OPEN,,,18.2,W,,08,133,39.77719879,-105.32900238,147.15,147.75,100,100,Jefferson,On-Air,Aurora Repeater Assoc (ARA),CCARC,2016-01-17,,,,,"Denver metro, central front range",e-power,ARA Repeaters,DM79IS,,,,,,,,,,,"Linkable to 224.74000 (N0POH) at Golden, Guy Hill, CO .",ARA: Wed at 20:00.,,,,,,,,,,,,,,,,,,,,,,,,,,,,,,,,,,,,,,,,,,,
447.525,-5,203.5,N0ESQ,"Parker, Hess Reservoir",CO,OPEN,,,18.81,SSE,,08,8189,39.49420166,-104.83599854,447.525,442.525,203.5,146.2,Douglas,On-Air,EmComm Colorado,CCARC,2017-03-11,,,,,"Denver metropolitan area, front range foothills",,,DM79NL,,,,,,,,Colorado ARES,"Not a ragchew machine. Traffic related to ARES, RACES and administrative and exercise traffic related thereto.",,,,,,,,,,,,,,,,,,,,,,,,,,,,,,,,,,,,,,,,,,,,,,
145.34,-0.6,103.5,KE4GUQ,Evergreen,CO,OPEN,I,,18.87,WSW,,08,73,39.63330078,-105.31700134,145.34,144.74,103.5,127.3,Jefferson,On-Air,Rocky Mtn Radio League,CCARC,2019-08-15,,,,3350,Wide area.,E-power.,Repeater,,,,,,,,,,,,,,,,,,,,,,,,,,,,,,,,,,,,,,,,,,,,,,,,,,,,,,,,
145.175,-0.6,CC,N0SZ,"Evergreen, Squaw Mountain",CO,OPEN,,D,18.87,WSW,,08,10932,39.63330078,-105.31700134,145.175,144.575,,,Clear Creek,On-Air,Rocky Mountain Ham Radio,CCARC,2019-11-27,,,,,,700,Rocky Mountain Ham Radio,DM79IP,,,,,,,,,Voice ID is required for data/GPS/text on TG 705,,,,yes,7,310810,RMHR c Record retrieved from radioid.net,,,,,,,,,,,,,,,,,,,,,,,,,,,,,,,,,,,,,,,
447.225,-5,,K0PRA,Parker,CO,OPEN,W,Y,19.52,SE,,08,18248,39.51860046,-104.76100159,447.225,442.225,,,Arapahoe,On-Air,Parker Radio Association,CCARC,2020-05-06,,,,,Small coverage area in Parker,Linked to the Colorado Mega digital system,https://www.parkerradio.org,,,,,,,yes,Open ↑ / Open ↓,,,40895,,Monday nights 8pm mountain,,,,,,,,,,,,,,,,,,,,,,,,,,,,,,,,,,,,,,,,,,,
448.05,-5,CC,N0KEG,Parker,CO,OPEN,,D,19.52,SE,,08,17696,39.51860046,-104.76100159,448.05,443.05,,,Douglas,,,,2019-11-27,,,,,,,,,,,,,,,,,,,,,yes,1,310374,Brandmeister c Record retrieved from radioid.net,BrandMeister,Unknown,,,,,Brandmeister,,,,,,,,,,,,,,,,,,,,,,,,,,,,,,,,
448.625,-5,100,W0TX,"Golden, Centennial Cone",CO,OPEN,,,19.57,W,,08,112,39.75249863,-105.35800171,448.625,443.625,100,100,Jefferson,On-Air,Denver Radio Club,CCARC,2017-03-11,,,,,Denver metro area.,E-power.,DRC Repeaters,DM79HS,,,,,,,,,,,"Full-time to 145.49000 (W0TX) at Idaho Springs, Centennial Cone, CO .",DRC: Sun at 20:30.,,,,,,,,,,,,,,,,,,,,,,,,,,,,,,,,,,,,,,,,,,,
146.985,-0.6,100,K0FEZ,"Golden, Centennial Cone",CO,OPEN,I,,19.63,W,,08,82,39.75249863,-105.35900116,146.985,146.385,100,100,Denver,On-Air,El Jebel RADOPS,CCARC,2016-09-05,,,,3346,,E-power.,,,,,,,,,,,,,,RADOPS: Sun at 19:00.,,,,,,,,,,,,,,,,,,,,,,,,,,,,,,,,,,,,,,,,,,,
145.28,-0.6,100,KE0SJ,"Golden, Centennial Cone",CO,OPEN,,,19.63,W,,08,140,39.75249863,-105.35900116,145.28,144.68,100,,Jefferson,On-Air,,CCARC,2015-05-22,,,,,Wide area.,"Closed autopatch, e-power, linked.",Intermountain Repeater Group,DM79HS,,,,,,,,,"PL is usually off, allowing use by older transceivers.",,"Full-time to 449.52500 (KE0SJ) at Golden, Centennial Cone, CO .",Sun at 19:30. Everyone welcome.,,,,,,,,,,,,,,,,,,,,,,,,,,,,,,,,,,,,,,,,,,,
449.525,-5,CSQ,KE0SJ,"Golden, Centennial Cone",CO,OPEN,,,19.63,W,,08,138,39.75249863,-105.35900116,449.525,444.525,CSQ,,Jefferson,On-Air,KE0SJ,CCARC,2015-05-23,,,,,,E-power.,Intermountain Repeater Group,DM79HS,,,,,,,,,,,"Full-time to 145.28000 (KE0SJ) at Golden, Centennial Cone, CO .",,,,,,,,,,,,,,,,,,,,,,,,,,,,,,,,,,,,,,,,,,,,
146.64,-0.6,100,N0PUF,"Golden, Centennial Cone",CO,OPEN,,,19.63,W,,08,77,39.75249863,-105.35900116,146.64,146.04,100,,Jefferson,On-Air,Denver Radio League,CCARC,2020-03-13,,,,,Wide area. Repeater Coverage Map,E-power.,DRL Repeaters,,,,,,,,,,8,,,,,,,,,,,,,,,,,,,,,,,,,,,,,,,,,,,,,,,,,,,,,,
927.8375,-25.8,D205,KI0HC,"Golden, Centennial Cone",CO,OPEN,,,20.06,W,,08,9702,39.76580048,-105.36599731,927.8375,902.025,D205,100,Jefferson,On-Air,,CCARC,2020-01-01,,,,,"Wide area coverage, I 25 from Cheyenne south to MM 20 just north of Trinidad. I 76 East to MM 100. I 70 from Idaho Springs to Genoa. Highway 24 from the Colorado Springs to Limon. Highway 24 west of Colorado Springs is spotty to Hartsel. US 50 from Canon City to Las Animas. Salida south to the San Luis Valley to Antonito. Salida North to just south of Leadville. Repeater Coverage Map",,,DM79HS,,,,Yes; analog capable.,,,,,,,Full-time to the The 900 P25 Network System .,,,,,,,,,yes,293,yes,,,,,,,,,,,,,,,,,,,,,,,,,,,,,,,,,
446.7875,-5,CC,W0TX,"Denver, Centennial Cone",CO,OPEN,,D,20.06,W,,08,7165,39.76570129,-105.36599731,446.7875,441.7875,,,Jefferson,On-Air,Denver Radio Club,CCARC,2019-11-27,,,,,,,http://www.w0tx.org/,,,,"Any Brandmeister talk group is available on time slot 1, too many to list here, see website. https://dmrx.net/files/US_BM_User_Guide.pdf. TG's are PTT enabled and will timeout after 15 minutes of inactivity. Time Slot 2 Talk Group 310805 is local repeater only.",,,,,Brandmeister Network,,,,,yes,1,310804,DMR-MARC c Record retrieved from radioid.net,,,,,,,,,,,,,,,,,,,,,,,,,,,,,,,,,,,,,,,
447.5,-5,88.5,N0OWY,"Conifer, Critchell Mountain",CO,OPEN,,,21.63,SSW,,08,60,39.47029877,-105.19799805,447.5,442.5,88.5,88.5,Jefferson,On-Air,Aurora Repeater Association,CCARC,2020-05-17,,,,,Wide area.,E-power.,,DM79JL,,,,,,,,,,,,,,,,,,,,,,,,,,,,,,,,,,,,,,,,,,,,,,,,,,,,,,,
423,820,ATV,W0BTV,Boulder,CO,OPEN,,,22.38,NW,,08,18534,39.97848511,-105.27445221,423,1243,ATV,,Boulder,On-Air,BATVC,,2020-02-25,,,,,"Wide Area, WY border to DIA to SE Denver","dual-mode, NTSC analog &amp; DVB-T digital ATV",https://kh6htv.com/,,,,,,,,,ATN,,,,"ATV, Thurs, 3pm local",,,,,,,,,,,,,,,,,,,,,,,,,,,,,,,,,,,,,,,,,,,
448.9,-5,100,W0DK,"Boulder, Table Mesa",CO,OPEN,,,22.38,NW,,08,10,39.97800064,-105.27500153,448.9,443.9,100,,Boulder,On-Air,Boulder ARC,CCARC,2013-03-17,,,,,"Wyoming border in the north, to Monument Hill in the south, near Colorado Springs. Its coverage is primarily to the east of the Front Range of the Rockies as the repeater signal is blocked to the west by the even higher Rocky Mountain peaks with altitudes of over 14,000 feet.",6,,,,,,,,,,,,,,,,,,,,,,,,,,,,,,,,,,,,,,,,,,,,,,,,,,,,,,,,,
146.61,-0.6,100,W0DK,Boulder,CO,OPEN,I,,22.39,NW,,08,13,39.97829819,-105.27500153,146.61,146.01,100,,Boulder,On-Air,Boulder Amateur Radio Club,CCARC,2019-08-23,,,,7007,,,,,,,,,,,,,,,,,,,,,,,,,,,,,,,,,,,,,,,,,,,,,,,,,,,,,,,,,,,
146.7,-0.6,100,W0DK,"Boulder, Table Mountain",CO,OPEN,,,22.5,NW,,08,14,39.97750092,-105.27899933,146.7,146.1,100,,Boulder,On-Air,Boulder Co ARC,CCARC,2013-03-17,,,,,"Wyoming border in the north, to Monument Hill (near Colorado Springs) in the south. Coverage is primarily to the east of the Rockies Front Range, as the repeater signal is blocked to the west by mountain peaks with altitudes of over 14,000 feet.",6,BARC Repeaters,,,,,,,,,,,,,,,,,,,,,,,,,,,,,,,,,,,,,,,,,,,,,,,,,,,,,,,,
1287.9,-20,CSQ,W0CRA,"Conifer, Conifer Mountain",CO,OPEN,,,22.54,SW,,08,103,39.52109909,-105.30500031,1287.9,1267.9,CSQ,,Jefferson,On-Air,Colorado Repeater Association (CRA),CCARC,2017-10-07,,,,,Fort Collins to Colorado Springs.,,,,,,,,,,,,,,,,,,,,,,,,,,,,,,,,,,,,,,,,,,,,,,,,,,,,,,,,,,
447.3,-5,107.2,AC0KC,Fort Lupton,CO,OPEN,EI,,22.6,NNE,Node Offline,08,8739,40.02759933,-104.78900146,447.3,442.3,107.2,,Weld,On-Air,,CCARC,2013-01-07,,,,3887,,,,,405804,,,,,,,,,,,,,,,,,,,,,,,,,,,,,,,,,,,,,,,,,,,,,,,,,,,,,,
447.625,-5,100,KE0SJ,Lochbuie,CO,OPEN,,,23.54,NE,,08,9771,40.00719833,-104.71600342,447.625,442.625,100,,Adams,On-Air,Intermountain Repeater Group,,2015-05-23,,,,,Local/North Metro,,Intermountain Repeater Group,,,,,,,,,,,,,,,,,,,,,,,,,,,,,,,,,,,,,,,,,,,,,,,,,,,,,,,,
146.76,-0.6,100,W0IA,"Boulder, Gunbarrel Hill",CO,OPEN,,,23.59,NNW,,08,16,40.05559921,-105.15699768,146.76,146.16,100,,Boulder,On-Air,Rocky Mtn VHF Soc,CCARC,2017-03-11,,,,,Wide area.,5,,DN70KB,,,,,,,,Boulder County ARES,ARES primary repeater. Voting Receivers: RX Location Tone Pitch PL Gunbarrel single beep low 100.0 Lousville single beep low 100.0 Lyons double beep high followed by medium 100.0 Louisville #2 double beep high followed by low 100.0,,,,,,,,,,,,,,,Tone,single beep,single beep,double beep,double beep,,,,,,,,,,,,,,,,,,,,,,,,,,,
447.85,-5,141.3,AC0KQ,"Evergreen, Saddleback Mountain",CO,OPEN,A,,23.95,W,,08,9580,39.71889877,-105.44000244,447.85,442.85,141.3,141.3,Clear Creek,On-Air,AC0KQ,CCARC,2019-08-23,,,,,Wide area at 9500',AllStar node repeater providing wide area coverage along the Front Range,,,,29571,,,,,,Rocky Mountain Ham Radio,,,,,,,,,,,,,,,,,,,,,,,,,,,,,,,,,,,,,,,,,,,,,,,
449.4,-5,91.5,K0DK,Boulder,CO,OPEN,,,24.16,NW,,08,21,40.01499939,-105.26999664,449.4,444.4,91.5,,Boulder,On-Air,BARC,CCARC,2013-01-08,,,,,,2,http://www.ked-wireless.com/products1.htm,,,,,,,,,,,,,,,,,,,,,,,,,,,,,,,,,,,,,,,,,,,,,,,,,,,,,,,,
449.55,-5,100,W0IA,Boulder,CO,OPEN,E,,24.16,NW,ON - IDLE,08,11,40.01499939,-105.26999664,449.55,444.55,100,,Boulder,On-Air,Rocky Mtn VHF Soc,CCARC,2017-03-11,,,,,Denver metro area.,8,,,217336,,,,,,,,,,"Full-time to 224.02000 (W0IA) at Boulder, Lee Hill, CO .",,,,,,,,,,,,,,,,,,,,,,,,,,,,,,,,,,,,,,,,,,,,
446.8625,-5,,KC0DS,Boulder,CO,OPEN,,S,24.19,NW,,08,8186,40.01499939,-105.27100372,446.8625,441.8625,,,Boulder,On-Air,Boulder County ARES,CCARC,2017-03-11,yes,KC0DS (B),jfindu lookup / dstar-users lookup,,,,,,,,,,,,,,,,,,,,,,,,,,,,,,,,,,,,,,,,,,,,,,,,,,,,,,,,,,,,
446.8,-5,CC,N0SZ,"Boulder, Mount Thorodin",CO,OPEN,,D,24.19,NW,,08,8185,40.01499939,-105.27100372,446.8,441.8,,,Boulder,On-Air,Rocky Mountain Ham Radio,CCARC,2019-11-27,,,,,Wide area.,,Rocky Mountain Ham Radio,,,,,,,,,Rocky Mountain Ham Radio,See website for complete information regarding timeslot/colorcode/talkgroup programming.,,Full-time to the Colorado TRBO System .,,yes,7,310800,RMHR c Record retrieved from radioid.net,,,,,,,,,,,,,,,,,,,,,,,,,,,,,,,,,,,,,,,
1299.5,-20,,W0DK,Boulder,CO,OPEN,,S,24.19,NW,,08,8221,40.01499939,-105.27100372,1299.5,1279.5,,,Boulder,On-Air,Boulder County ARES,CCARC,2012-11-12,yes,W0DK (A) DVAP 24/7,jfindu lookup / dstar-users lookup,,,E-power.,,,,,,,,,,,,,,,,,,,,,,,,,,,,,,,,,,,,,,,,,,,,,,,,,,,,,,,,,
145.3875,-0.6,,KC0DS,Boulder,CO,OPEN,,S,24.21,NNW,,08,8171,40.03720093,-105.23000336,145.3875,144.7875,,,Boulder,On-Air,Boulder County ARES,CCARC,2012-11-12,yes,KC0DS (C),jfindu lookup / dstar-users lookup,,20,E-power.,http://bouldercountyares.org/technical/d-star,,,,,,,,,,,,,,,,,,,,,,,,,,,,,,,,,,,,,,,,,,,,,,,,,,,,,,,,
1283.8625,-20,,KC0DS,Boulder,CO,OPEN,,S,24.21,NNW,,08,8220,40.03720093,-105.23000336,1283.8625,1263.8625,,,Boulder,On-Air,Boulder County ARES,CCARC,2013-12-21,yes,KC0DS (A) Repeater,jfindu lookup / dstar-users lookup,,20,E-power.,,DN70JA,,,,,,,,,,,,,,,,,,,,,,,,,,,,,,,,,,,,,,,,,,,,,,,,,,,,,,,
147.12,0.6,88.5,N0ARA,"Critchell, Critchell Mountain",CO,OPEN,,,24.77,SW,,08,59,39.51480103,-105.35299683,147.12,147.72,88.5,88.5,Jefferson,On-Air,Aurora Repeater Association,CCARC,2016-01-17,,,,,Denver metro and east.,E-power.,http://www.n0ara.org,DM79HM,,,,,,,,,,,,,,,,,,,,,,,,,,,,,,,,,,,,,,,,,,,,,,,,,,,,,,,
445.075,-5,CC,K0PRA,Parker,CO,OPEN,,D,25.21,SE,"Colorado Mega Reflector - XLX376 Transcoder - YSF 23160 - WiresX 40895 Welcome to the new and improved Colorado Mega Link! Brought to you by the Parker Radio Association, where we have fun, play radio and keep the squelch loose. Please join us Monday nights at 8pm mountain time our our digital net.",08,17292,39.44910049,-104.70300293,445.075,440.075,,,Douglas,On-Air,Parker Radio Association,CCARC,2019-11-27,,,,,,Brandmeister Network https://brandmeister.network/?page=repeater&amp;id=310844,http://www.parkerradio.org,,,,,,,,,,Mixed Mode,,,Mondays 20:30 MST,yes,1,310844,None c Record retrieved from radioid.net,,,,,,,,,,,,,,,,,,,,,,,,,,,,,,,,,,,,,,,
145.31,-0.6,88.5,KB0VJJ,"Boulder, Thorodin Mountain",CO,OPEN,,,25.31,WNW,,08,72,39.88750076,-105.4260025,145.31,144.71,88.5,123,Gilpin,On-Air,Colorado Connection,CCARC,2019-08-15,,,,,"Wide area: Cheyenne, Wyoming to the north, Monument, Colorado to the south, Limon, Colorado to the east, and the continental divide to the west.",10,,DM79GV,,,,,,,,,"Split tone. The repeater still transmits 123.0 for those wishing to use tone squelch, you must run a split tone 88.5 TX and 123.0 RX",,Full-time to the Colorado Connection System .,Colorado Traffic Net: Daily at 19:30. Colorado Connection Net (all welcome): Thu at 20:00. Statewide ARES: Sun at 20:00.,,,,,,,,,,,,,,,,,,,,,,,,,,,,,,,,,,,,,,,,,,,
449.225,-5,141.3,N0SZ,"Denver, Thorodin Mountain",CO,OPEN,,,25.31,WNW,,08,97,39.88750076,-105.4260025,449.225,444.225,141.3,141.3,Gilpin,On-Air,Rocky Mountain Ham Radio (RMHR),CCARC,2015-11-03,,,,,Wide area.,Emergency Power,,DM79GV,,,,,,,,,"Emcomm Affiliated, Open repeater",,,,,,,,,,,,,,,,,,,,,,,,,,,,,,,,,,,,,,,,,,,,,,
224.96,-1.6,CSQ,AC0KC,Fort Lupton,CO,OPEN,,,25.65,NNE,,08,8183,40.08470154,-104.81300354,224.96,223.36,CSQ,,Weld,On-Air,AC0KC,CCARC,2012-11-12,,,,,,,,,,,,,,,,,,,,,,,,,,,,,,,,,,,,,,,,,,,,,,,,,,,,,,,,,,,,,,,
146.73,-0.6,91.5,K0DK,Boulder,CO,OPEN,E,,25.74,NNW,Node Offline,08,15,40.05709839,-105.24299622,146.73,146.13,91.5,91.5,Boulder,On-Air,BARC,CCARC,2017-05-02,,,,,Local,12,http://www.ked-wireless.com/products1.htm,DN70jb,115482,,,,,,,,,,,,,,,,,,,,,,,,,,,,,,,,,,,,,,,,,,,,,,,,,,,,,,
927.7375,-25.7,100,KI0HC,Parker,CO,OPEN,,,26.32,SE,,08,14732,39.53910065,-104.56900024,927.7375,902.025,100,100,Douglas,On-Air,,CCARC,2020-01-01,,,,,"Wide area coverage, I 25 from Cheyenne south to MM 20 just north of Trinidad. I 76 East to MM 100. I 70 from Idaho Springs to Genoa. Highway 24 from the Colorado Springs to Limon. Highway 24 west of Colorado Springs is spotty to Hartsel. US 50 from Canon City to Las Animas. Salida south to the San Luis Valley to Antonito. Salida North to just south of Leadville. Repeater Coverage Map",,,DM79RM,,,,Yes; analog capable.,,,,,,,Full-time to the The 900 P25 Network System .,,,,,,,,,yes,293,yes,,,,,,,,,,,,,,,,,,,,,,,,,,,,,,,,,
449,-5,136.5,WR0AEN,"Idaho Springs, Squaw Mountain",CO,OPEN,,,26.44,W,,08,8250,39.6731987,-105.48000336,449,444,136.5,136.5,Clear Creek,On-Air,CARN,CCARC,2017-03-11,,,,,,,,,,,,,,,,,,,,,,,,,,,,,,,,,,,,,,,,,,,,,,,,,,,,,,,,,,,,,,,
147.3,0.6,103.5,N0PYY,"Evergreen, Squaw Mountain",CO,OPEN,,,26.75,W,,08,84,39.67810059,-105.48699951,147.3,147.9,103.5,103.5,Clear Creek,On-Air,Denver PD EEB,CCARC,2017-03-11,,,,,Wide area.,,,DM79GQ,,,,,,,,,,,,,,,,,,,,,,,,,,,,,,,,,,,,,,,,,,,,,,,,,,,,,,,
449.925,-5,114.8,K0EB,Hudson,CO,OPEN,EI,,26.79,NE,Node Offline,08,8216,40.02019882,-104.64199829,449.925,444.925,114.8,114.8,Weld,On-Air,K0EB,CCARC,2018-12-01,,,,8035,,,,DN70,448035,,,,,,,K0UPS Club,,,,,,,,,,,,,,,,,,,,,,,,,,,,,,,,,,,,,,,,,,,,,,,
448.675,-5,100,W0CFI,"Idaho Springs, Squaw Mountain",CO,OPEN,,,26.81,W,,08,94,39.67739868,-105.48799896,448.675,443.675,100,100,Denver,On-Air,W0CFI,CCARC,2020-05-05,,,,,Wide area.,,,,,,,,,,,,,,,,,,,,,,,,,,,,,,,,,,,,,,,,,,,,,,,,,,,,,,,,,,
146.67,-0.6,100,KB0UDD,"Idaho Springs, Squaw Mountain",CO,OPEN,,,27,W,,08,78,39.6794014,-105.49199677,146.67,146.07,100,100,Clear Creek,On-Air,Castle Rock Repeater Group,CCARC,2019-11-11,,,,,"North to Cheyenne, Wy - East to Limon, Co - South to Colorado Springs, Co and West to the Continental Divide.",11,,,,,,,,,,,,,,CRRG/QCWA: Sun at 0930. Southern Metro LDS Ham Group: Sun at 1900. ARES23: Thu at 1930. ARES13: Sun at 2000.,,,,,,,,,,,,,,,,,,,,,,,,,,,,,,,,,,,,,,,,,,,
145.145,-0.6,107.2,W0CRA,"Idaho Springs, Squaw Mountain",CO,OPEN,,,27,W,,08,107,39.6794014,-105.49199677,145.145,144.545,107.2,107.2,Clear Creek,On-Air,Colorado Repeater Assoc,CCARC,2019-11-11,,,,,Wide area. Denver metro.,E-power.,http://www.w0cra.org/info/squaw.html#145145,,,,,,,,,,,,,,,,,,,,,,,,,,,,,,,,,,,,,,,,,,,,,,,,,,,,,,,,
447.575,-5,107.2,W0CRA,"Idaho Springs, Squaw Mountain",CO,OPEN,EI,,27,W,Node Offline,08,264,39.6794014,-105.49199677,447.575,442.575,107.2,107.2,Clear Creek,On-Air,Colorado Repeater Association (CRA),CCARC,2017-11-13,,,,3291,Wide area: Denver metro.,,http://www.w0cra.org,,347088,,Member-only IRLP and Echolink node,,,,,,,,,,,,,,,,,,,,,,,,,,,,,,,,,,,,,,,,,,,,,,,,,,,,
145.49,-0.6,100,W0TX,"Idaho Springs, Centennial Cone",CO,OPEN,,,27,W,,08,76,39.6794014,-105.49199677,145.49,144.89,100,100,Jefferson,On-Air,"KB0VIU, Denver Radio Club",CCARC,2017-03-11,,,,,,E-power.,DRC Repeaters,,,,,,,,,,,,"Full-time to 448.62500 (W0TX) at Golden, Centennial Cone, CO .",DRC: Sun at 20:30.,,,,,,,,,,,,,,,,,,,,,,,,,,,,,,,,,,,,,,,,,,,
449.35,-5,100,W0TX,"Idaho Springs, Squaw Mountain",CO,OPEN,E,,27,W,Node Offline,08,98,39.6794014,-105.49199677,449.35,444.35,100,100,Clear Creek,On-Air,Denver Radio Club,CCARC,2020-05-17,,,,,Wide area.,11,DRC Repeaters,,4140,,,,,,,,,,,,,,,,,,,,,,,,,,,,,,,,,,,,,,,,,,,,,,,,,,,,,,
449.45,-5,103.5,K1DUN,"Idaho Springs, Squaw Mountain",CO,OPEN,,,27.05,W,,08,99,39.6794014,-105.49299622,449.45,444.45,103.5,127.3,Clear Creek,On-Air,Rocky Mountain Radio League,CCARC,2020-05-17,,,,,"Wide area: West to the Continental Divide, south to Colorado Springs, east to Limon, and north to Cheyenne.",11,Repeater,DM79GQ,,,,,,,,,,,,RMRL: Mon at 20:30.,,,,,,,,,,,,,,,,,,,,,,,,,,,,,,,,,,,,,,,,,,,
446.9375,-5,CC,N0SZ,"Idaho Springs, Squaw Mountain",CO,OPEN,,D,27.05,W,,08,7190,39.67979813,-105.49299622,446.9375,441.9375,,,Clear Creek,On-Air,Rocky Mountain Ham Radio,CCARC,2019-11-27,,,,,,,Rocky Mountain Ham Radio,,,,,,,,,,See the website for programming information.,,Full-time to the Colorado TRBO System .,,yes,7,310801,RMHR c Record retrieved from radioid.net,,,,,,,,,,,,,RMHAM,"Open Talkgroup View Assignment TS TG Access Rocky Mountain Wide 1 700 Full-Time Southern Colorado 2 719 Full-Time Central Regional 2 720 Full-Time Northern Colorado Regional 2 721 Full-Time function myFunction(id) { var x = document.getElementById(id); if (x.className.indexOf(""w3-show"") == -1) { x.className += "" w3-show""; } else { x.className = x.className.replace("" w3-show"", """"); } }",1,2,2,2,,,,,,,,,,,,,,,,,,,,,
448.225,-5,141.3,N0SZ,"Idaho Springs, Squaw Mountain",CO,OPEN,,,27.05,W,,08,8197,39.67969894,-105.49299622,448.225,443.225,141.3,141.3,Clear Creek,On-Air,Rocky Mountain Ham Radio,CCARC,2016-05-24,,,,,,E-power(gen).,,DM79GQ,,,,,,,,,,,,,,,,,,,,,,,,,,,,,,,,,,,,,,,,,,,,,,,,,,,,,,,
146.94,-0.6,103.5,W0WYX,"Idaho Springs, Squaw Mountain",CO,OPEN,,,27.05,W,,08,81,39.67979813,-105.49299622,146.94,146.34,103.5,103.5,Clear Creek,On-Air,Rocky Mtn Radio League,CCARC,2017-03-11,,,,,"Wide area: west to the Continental Divide, south to Colorado Springs, east to Limon, and north to Cheyenne.",11,Repeater,DM79GQ,,,Autopatch: 911* / Off 0*.,,,,,,,,"Linkable to 449.82500 (W0WYX) at Broomfield, CO . Linkable to 449.45000 (K1DUN) at Idaho Springs, Squaw Mountain, CO .",Colorado WX: Daily at 06:30. RMRL: Mod at 20:30. Astronomy: Tue at 19:00. Amateur Radio Events: Tue at 20:00.,,,,,,,Listen Live,,,,,,,,,,,,,,,,,,,,,,,,,,,,,,,,,,,,
449.05,-5,107.2,WG0N,"Idaho Springs, Squaw Mountain",CO,OPEN,,,27.84,W,,08,95,39.74250031,-105.51399994,449.05,444.05,107.2,107.2,Denver,On-Air,WG0N,CCARC,2020-05-17,,,,,Wide area.,E-power.,,DM79FR,,,,,,,,,,,,,,,,,,,,,,,,,,,,,,,,,,,,,,,,,,,,,,,,,,,,,,,
446.85,-5,,K0PRA,Franktown,CO,OPEN,,S,29.19,SE,,08,11473,39.39350128,-104.67500305,446.85,441.85,,,Douglas,On-Air,Parker Radio Association,CCARC,2018-03-18,yes,K0PRA (B) Repeater,jfindu lookup / dstar-users lookup,,,D-Star B module,http://parkerradio.org,DM79PJ,,,,,,,,,,,,,,,,,,,,,,,,,,,,,,,,,,,,,,,,,,,,,,,,,,,,,,,
224.6,-1.6,100,W0RM,Rollinsville,CO,OPEN,,,29.78,WNW,,08,201,39.91719818,-105.50099945,224.6,223,100,,Gilpin,,W0RM,CCARC,2012-11-10,,,,,,,,,,,,,,,,,,,,,,,,,,Unknown,,,,,,,,,,,,,,,,,,,,,,,,,,,,,,,,,,,,,
445.05,-5,CC,N0SZ,"Boulder, Lee Hill",CO,OPEN,,D,30.03,NW,,08,8992,40.07220078,-105.35399628,445.05,440.05,,,Boulder,On-Air,Rocky Mountain Ham Radio,CCARC,2019-11-27,,,,,Wide area,BrandMeister Network,,,,,,,,,,,,,,,yes,1,310852,RMHR c Record retrieved from radioid.net,BrandMeister,,,,,,BrandMeister US,,,,,,,,,,,,,,,,,,,,,,,,,,,,,,,,
446.9875,-5,CC,N0SZ,"Boulder, Lee Hill",CO,OPEN,,D,30.03,NW,,08,5219,40.07220078,-105.35399628,446.9875,441.9875,,,Boulder,On-Air,Rocky Mountain Ham Radio,,2019-11-27,,,,,,Linked on Time Slot 2 to Almagre Mtn (446.950).,,,,,,,,,,,,,"Full-time to 446.95000 (K7PFJ) at Colorado Springs, Almagre Mountain, CO . Full-time to the Colorado TRBO System .",,yes,7,310813,RMHR c Record retrieved from radioid.net,,,,,,,,,,,,,,,,,,,,,,,,,,,,,,,,,,,,,,,
447.75,-5,141.3,N0SZ,"Boulder, Lee Hill",CO,OPEN,I,,30.03,NW,,08,19,40.07220078,-105.35399628,447.75,442.75,141.3,141.3,Boulder,On-Air,Rocky Mountain Ham Radio,CCARC,2018-04-24,,,,3450,,,,,,,,,,,,,,,,,,,,,,,,,,,,,,,,,,,,,,,,,,,,,,,,,,,,,,,,,,,
145.46,-0.6,107.2,W0CRA,"Boulder, Eldorado Mountain",CO,OPEN,EI,,30.03,NW,ON - IDLE,08,8,40.07220078,-105.35399628,145.46,144.86,107.2,107.2,Boulder,On-Air,Colorado Repeater Association (CRA),CCARC,2017-11-13,,,,3990,Boulder/Denver Metro,"Closed autopatch, e-power.",,,347086,,Member-only IRLP and Echolink node,,,,,CRA VHF Link System,,,"Full-time to 145.16000 (W0CRA) at Colorado Springs, Cheyenne Mountain, CO . Full-time to 147.22500 (W0CRA) at Larkspur, Westcreek, CO .",,,,,,,,,,,,,,,,,,,,,,,,,,,,,,,,,,,,,,,,,,,,
447.975,-5,107.2,W0CRA,"Boulder, Eldorado Mountain",CO,OPEN,,,30.03,NW,,08,20,40.07220078,-105.35399628,447.975,442.975,107.2,107.2,Boulder,On-Air,Colorado Repeater Association (CRA),CCARC,2016-09-08,,,,,Wide area: Boulder/Longmont area.,Closed autopatch.,,DN70HB,,,,,,,,,,,,,,,,,,,,,,,,,,,,,,,,,,,,,,,,,,,,,,,,,,,,,,,
224.02,-1.6,,W0IA,"Boulder, Lee Hill",CO,OPEN,E,,30.03,NW,ON - IDLE,08,18,40.07220078,-105.35399628,224.02,222.42,,,Boulder,On-Air,Rocky Mtn VHF Soc,CCARC,2017-03-11,,,,,Denver metro area.,8,RMVHS repeaters,DN70HB,217336,,,,,,,,,,"Full-time to 449.55000 (W0IA) at Boulder, CO .",,,,,,,,,,,,,,,,,,,,,,,,,,,,,,,,,,,,,,,,,,,,
448.525,-5,151.4,N0EPA,Longmont,CO,OPEN,E,,30.15,N,ON - IDLE,08,176,40.16719818,-105.10099792,448.525,443.525,151.4,,Boulder,On-Air,N0EPA,CCARC,2019-06-19,,,,,,,,,223853,,,,,,,,,,,,,,,,,,,,,,,,,,,,,,,,,,,,,,,,,,,,,,,,,,,,,,
147.27,0.6,100,W0ENO,Longmont,CO,OPEN,,,30.15,N,,08,175,40.16719818,-105.10099792,147.27,147.87,100,100,Boulder,On-Air,Longmont ARC (LARC),CCARC,2017-03-11,,,,,Wide area: Northern Colorado.,"Closed autopatch, e-power, EchoLink.",http://w0eno.org/?q=node/11,,,,,,,,,,,,"Linkable to 448.80000 (W0ENO) at Longmont, CO .",,,,,,,,,,,,,,,,,,,,,,,,,,,,,,,,,,,,,,,,,,,,
448.8,-5,88.5,W0ENO,Longmont,CO,OPEN,E,,30.15,N,ON - IDLE,08,177,40.16719818,-105.10099792,448.8,443.8,88.5,88.5,Boulder,On-Air,Longmont ARC,CCARC,2020-05-17,,,,,,30,,,8305,,,,,,,,,,"Linkable to 147.27000 (W0ENO) at Longmont, CO .",Hamlet: Tue at 1900. LARC: Thur at 20:00.,,,,,,,,,,,,,,,,,,,,,,,,,,,,,,,,,,,,,,,,,,,
146.91,-0.6,123,W0JZ,Gold Hill,CO,OPEN,,,31.58,NW,,08,13368,40.06330109,-105.41000366,146.91,146.31,123,127.3,Boulder,On-Air,,,2020-03-31,,,,,"East of Gold Hill, The Indian Peaks, Denver, Boulder",,http://goldhilltown.com/,,,,,,,,,"Town of Gold Hill, Colorado",There is a MOU With BCARES for repeater use.,,,"Summer Tue at 19:30P, Winter 19:00.",,,,,,,,,,,,,,,,,,,,,,,,,,,,,,,,,,,,,,,,,,,
446.925,-5,CC,N0ESQ,"Castle Rock, Devils Head",CO,OPEN,,D,33.44,SSW,,08,7193,39.26480103,-105.11399841,446.925,441.925,,,Douglas,On-Air,,CCARC,2019-11-27,,,,,,,Rocky Mountain Ham Radio,DM79KG,,,,,,,,,See the website for programming info.,,Full-time to the Colorado TRBO System .,,yes,8,310817,RMHR c Record retrieved from radioid.net,,,,,,,,,,,,,,"Open Talkgroup View Assignment TS TG Access Southern Colorado 1 719 Devilshead Local 2 711 function myFunction(id) { var x = document.getElementById(id); if (x.className.indexOf(""w3-show"") == -1) { x.className += "" w3-show""; } else { x.className = x.className.replace("" w3-show"", """"); } }",,1,,,2,,,,,,,,,,,,,,,,,,,,
447.525,-5,146.2,N0ESQ,"Castle Rock, Devils Head (Pike National Forest)",CO,OPEN,,,33.44,SSW,,08,8190,39.26480103,-105.11399841,447.525,442.525,146.2,146.2,Douglas,On-Air,EmComm Colorado,CCARC,2015-06-17,,,,,"Denver metro north to the Wyoming border. Back country including Bailey, Deckers, Woodland Park. Severe null due east due to Devils Head Peak.",,,DM79KG,,,,,,,,Colorado ARES,"This is not a ragchew machine. Traffic is limited to ARES, RACES and EmComm administrative, exercise, public service and disaster response.",,,,,,,,,,,,,,,,,,,,,,,,,,,,,,,,,,,,,,,,,,,,,,
146.895,-0.6,100,AB0PC,"Bailey, Dick Mountain",CO,OPEN,A,,34.54,SW,,08,7,39.4056015,-105.47299957,146.895,146.295,100,100,Park,On-Air,AB0RR,CCARC,2017-07-05,,,,,285,25,Park County Radio Club (PCRC),,,45835,,,,,,,,,"Full-time internet linked to 448.57500 (WZ0N) at Hartsel, CO .",Wed at 19:30.,,,,,,,,,,,,,,,,,,,,,,,,,,,,,,,,,,,,,,,,,,,
147.225,0.6,107.2,W0CRA,"Larkspur, Westcreek",CO,OPEN,EI,,39.02,S,ON - IDLE,08,83,39.17549896,-105.03399658,147.225,147.825,107.2,107.2,Douglas,On-Air,Colorado Repeater Association (CRA),CCARC,2017-11-13,,,,3990,Wide area,Closed autopatch,Colorado Repeater Association,DM79LE,347086,,,,,,,CRA VHF Link System,,,"Full-time to 145.16000 (W0CRA) at Colorado Springs, Cheyenne Mountain, CO . Full-time to 145.46000 (W0CRA) at Boulder, Eldorado Mountain, CO .","CRA Net, Sunday 9AM",,,,,,,,,,,,,,,,,,,,,,,,,,,,,,,,,,,,,,,,,,,
448.425,-5,107.2,W0CRA,"Larkspur, Westcreek",CO,OPEN,,,39.02,S,,08,16547,39.17549896,-105.03399658,448.425,443.425,107.2,107.2,Douglas,On-Air,Colorado Repeater Association (CRA),CCARC,2020-02-11,,,,,Wide area 55 mi radius.,E-Power,http://www.w0cra.org,,,,,,,,,ARESDEC,,,"Full-time to 147.10500 (WA0DE) at Simla, CO .",,,,,,,,,,,,,,,,,,,,,,,,,,,,,,,,,,,,,,,,,,,,
147,0.6,100,KC0KWD,LaSalle,CO,OPEN,I,Y,39.08,NNE,,08,157,40.26119995,-104.70600128,147,147.6,,,Weld,On-Air,Weld ARS,CCARC,2019-05-06,,,,3839,,"Yaesu System Fusion, 20 Watts. Will be switching to DSQ on 1 Feb 2016.",,DN70PG,,,,,,yes,Open ↑ / Open ↓,,,,,Tuesday Night club net,,,,,,,,,,,,,,,,,,,,,,,,,,,,,,,,,,,,,,,,,,,
448.475,-5,100,KC0KWD,Greeley,CO,OPEN,I,,39.08,NNE,,08,158,40.26119995,-104.70600128,448.475,443.475,100,,Weld,On-Air,Weld Amateur Radio Society (WARS),CCARC,2019-05-06,,,,3839,,,http://www.warsco.org/,DN70PG,,,,,,,,,,,,,,,,,,,,,,,,,,,,,,,,,,,,,,,,,,,,,,,,,,,,,,,
446.875,-5,CC,N0SZ,Westcreek,CO,OPEN,,D,41.59,SSW,,08,15900,39.15250015,-105.16400146,446.875,441.875,,,Douglas,On-Air,W0VG,CCARC,2019-11-27,,,,,,,http://www.rmham.org,,,,,,,,,RMHAM,,,Full-time to the Colorado TRBO System .,,yes,6,310846,RMHAM c Record retrieved from radioid.net,,,,,,,,,,,,,,"Open Talkgroup View Assignment TS TG Access Rocky Mountain Wide 1 700 Full-Time Central Regional 2 720 Full-Time function myFunction(id) { var x = document.getElementById(id); if (x.className.indexOf(""w3-show"") == -1) { x.className += "" w3-show""; } else { x.className = x.className.replace("" w3-show"", """"); } }",1,,2,,,,,,,,,,,,,,,,,,,,,,
147.075,0.6,131.8,N0XLF,"Palmer Lake, Monument Hill",CO,OPEN,E,,41.81,S,ON - IDLE,08,8740,39.13600159,-104.92700195,147.075,147.675,131.8,131.8,Douglas,On-Air,N0OBA Owner,,2020-04-26,,,,,Wide area coverage at 8300 70 mi radius.,,,DM79MD,10079,,,,,,,,,,,Tri Lakes Net: Mon at 19:30 (except third Monday of the month which is the regular radio club meeting).,,,,,,,,,,,,,,,,,,,,,,,,,,,,,,,,,,,,,,,,,,,
447.45,-5,103.5,WA4CCC,Winter Park,CO,OPEN,,,45.06,WNW,,08,3756,39.94729996,-105.79499817,447.45,442.45,103.5,,Grand,On-Air,W0IG,CCARC,2013-10-26,,,,,,,,DM79CW,,,,,,,,,,,,,,,,,,,,,,,,,,,,,,,,,,,,,,,,,,,,,,,,,,,,,,,
447.725,-5,100,K0NR,"Monument, Monument Hill",CO,OPEN,,,45.18,S,,08,183,39.09170151,-104.87200165,447.725,442.725,100,100,El Paso,On-Air,K0NR,CCARC,2016-12-10,,,,,Local.,30,http://www.k0nr.com/wordpress/k0nr-repeater/,,,,,,,,,,,,,,,,,,,,,,,,,,,,,,,,,,,,,,,,,,,,,,,,,,,,,,,,
449.575,-5,100,W0LRA,"Loveland, Namaqua Hill",CO,OPEN,,,45.72,N,,08,181,40.39780045,-105.0739975,449.575,444.575,100,,Larimer,On-Air,Loveland Rptr Assoc,CCARC,2018-02-24,,,,,,"Closed autopatch, e-power.",,,,,,,,,,,,,,,,,,,,,,,,,,,,,,,,,,,,,,,,,,,,,,,,,,,,,,,,,
147.195,0.6,100,W0LRA,"Loveland, Namaqua Hill",CO,OPEN,,,46.11,N,,08,179,40.39849854,-105.125,147.195,147.795,100,,Larimer,On-Air,Loveland Repeater Assoc,CCARC,2016-08-18,,,,,,"Closed autopatch, e-power.",,,,,,,,,,,,,,,,,,,,,,,,,,,,,,,,,,,,,,,,,,,,,,,,,,,,,,,,,
449.725,-5,127.3,K0OJ,"Greeley, UNC",CO,OPEN,,,48.36,NNE,,08,159,40.40370178,-104.70300293,449.725,444.725,127.3,,Weld,On-Air,K0OJ,CCARC,2019-10-04,,,,,,"Autopatch, WX.",,,,,,,,,,,,,,,,,,,,,,,,,,,,,,,,,,,,,,,,,,,,,,,,,,,,,,,,,
146.85,-0.6,100,W0UPS,"Greeley, UNC",CO,OPEN,,,48.4,NNE,,08,156,40.40359879,-104.69999695,146.85,146.25,100,100,Weld,On-Air,Northern Colorado ARC,CCARC,2017-05-08,,,,,,"E-power, WX.",,,,,,,,,,,,,,,,,,,,,,,,,,,,,,,,,,,,,,,,,,,,,,,,,,,,,,,,,
448.025,-5,100,W0UPS,"Loveland, Budweiser Event Center",CO,OPEN,,Y,48.7,N,,08,3621,40.44400024,-104.98899841,448.025,443.025,100,100,Larimer,On-Air,Northern Colorado ARC,CCARC,2016-03-21,,,,,,,,DN70MK,,,,Yes; analog capable.,,yes,Open ↑ / Open ↓,,,,,,,,,,,,,,,,,,,,,,,,,,,,,,,,,,,,,,,,,,,,,,,,
446.8875,-5,,KE0VUW,"Colorado Springs, Sun Hills Subdivision",CO,OPEN,,S,48.89,SSE,,08,18710,39.046,-104.8065,446.8875,441.8875,,,El Paso,On-Air,Pikes Peak Regional OEM SCU,CCARC,2020-05-04,yes,KE0VUW (B) Repeater,jfindu lookup / dstar-users lookup,,,,,,,,,,,,,,,,,,,,,,,,,,,,,,,,,,,,,,,,,,,,,,,,,,,,,,,,,,,,
146.685,-0.6,123,N0FH,Estes Park,CO,OPEN,EI,,49.35,NNW,ON - IDLE,08,119,40.36009979,-105.4509964,146.685,146.085,123,123,Larimer,On-Air,Estes Valley ARC,CCARC,2020-03-22,,,,7268,Estes Valley and east RMNP - some coverage E and SE (Loveland and Denver),E-power.,,DN70GI,625757,,"The EchoLink node connects to both machines. The node is open (no passwords; touch tone only the the * character followed by a four, five, or six digit node number where you wish to connect). The disconnect is #.",,,,,,"Both Echolink and IRLP are open, IRLP connect is a four digit node number only and '73' to disconnect. Top of Hour time is announced from 0600 to 2200.",,"Full-time to 449.80000 (N0FH) at Estes Park, CO .",ARES D-10: Thu at 19:00.,,,,,,,,,,,,,,,,,,,,,,,,,,,,,,,,,,,,,,,,,,,
445.1375,-5,CC,KB0VGD,Greeley,CO,OPEN,,D,49.55,NNE,,08,18521,40.42331314,-104.70912933,445.1375,440.1375,,,Weld,On-Air,,,2020-02-17,,,,,,,,,,,,,,,,,,,,,yes,2,,c Record retrieved from radioid.net,,,,,,,,,,,,,,,,,,,,,,,,,,,,,,,,,,,,,,,
449.325,-5,136.5,WR0AEN,Greeley,CO,OPEN,,S,49.55,NNE,,08,8210,40.4233017,-104.70899963,449.325,444.325,,,Weld,On-Air,Colorado Amateur Repeater Network (CARN),CCARC,2012-11-12,yes,WR0AEN (B),jfindu lookup / dstar-users lookup,,,,,,,,,,,,,,,,,,,,,,,,,,,,,,,,,,,,,,,,,,,,,,,,,,,,,,,,,,,,
448.8,-5,100,KB0SRJ,"Colorado Springs, ~2 mi ENE USAFA North Gate",CO,OPEN,,,50.04,SSE,,08,57,39.03020096,-104.7990036,448.8,443.8,100,,El Paso,On-Air,Pikes Peak FM Association (http://PPFMA.ORG),CCARC,2019-09-24,,,,,I-25 corridor from Baptist Rd south to Fort Carson,,PPFMA Repeaters,DM79OA,,,,,,,,,,,,,,,,,,,,,,,,,,,,,,,,,,,,,,,,,,,,,,,,,,,,,,,
448.95,-5,,,Black Forest,CO,OPEN,,SY,50.16,SSE,,08,17551,39.04850006,-104.7009964,448.95,443.95,,,El Paso,,N0PKT,,2019-01-08,yes,(B) Repeater,jfindu lookup / dstar-users lookup,,This repeater covers most of Black Forest and various areas of Monument and Colorado Springs,e-power,http://www.k0jsc.com,,,,,,,yes,Open ↑ / Open ↓,K0JSC,,,,Primarily on NXDN: All Nets carried on the K0JSC.COM Fun Machine system,,,,,,Unknown,,,,,,,,,,,,,,,,,,yes,1,yes,,,,,,,,,,,,,,,,,
147.24,0.6,CC,N0WAR,"Estes Park, Prospect Mtn",CO,OPEN,,D,51.28,NNW,"DMR BrandMeister Repeater in Estes Park, Colorado Wide area coverage of Estes Park, Colorado &amp; Rocky Mountain National Park. Static TG of 3171 on T.S. 2 Located @ KC0KBP QTH",08,17813,40.36059952,-105.51999664,147.24,147.84,,,Larimer,On-Air,N0WAR,,2019-11-27,,,,,Wide Area: Estes Park &amp; Rocky Mtn Nat Park,Brandmeister Network,http://www.w0dmr.org,DN70FI,,,,,,,,W0DMR,,,,,yes,2,310853,Brandmeister c Record retrieved from radioid.net,,,,,,,,,,,,,,,,,,,,,,,,,,,,,,,,,,,,,,,
145.415,-0.6,179.9,KA0WUC,Woodland Park,CO,OPEN,,,51.62,S,,08,249,38.9939003,-105.05599976,145.415,144.815,179.9,,Teller,,MARC,CCARC,2012-11-12,,,,,,"Closed autopatch, e-power.",,,,,,,,,,,,,,,,,,,,Unknown,,,,,,,,,,,,,,,,,,,,,,,,,,,,,,,,,,,,,
447.675,-5,179.9,KA0WUC,Woodland Park,CO,OPEN,,,51.62,S,,08,8193,38.9939003,-105.05699921,447.675,442.675,179.9,179.9,Teller,On-Air,Mountain Amateur Radio Club (MARC),CCARC,2014-05-22,,,,,,E-power.,,,,,,,,,,,,,,,,,,,,,,,,,,,,,,,,,,,,,,,,,,,,,,,,,,,,,,,,,
449.025,-5,141.3,KA0WUC,Woodland Park,CO,OPEN,,,51.62,S,,08,252,38.9939003,-105.05599976,449.025,444.025,141.3,,Teller,,Mountain Amateur Radio Club (MARC),CCARC,2012-11-10,,,,,,Linked.,,,,,,,,,,,,,,,,,,,,Unknown,,,,,,,,,,,,,,,,,,,,,,,,,,,,,,,,,,,,,
146.82,-0.6,107.2,NX0G,Woodland Park,CO,OPEN,,,51.62,S,,08,250,38.9939003,-105.05599976,146.82,146.22,107.2,,Teller,On-Air,Mountain ARC,CCARC,2016-11-17,,,,,,E-power.,,,,,,,,,,,,,"Full-time to 146.68500 (NX0G) at Lake George, Badger Mountain, CO . Full-time to 448.65000 (NX0G) at Woodland Park, CO . Full-time to 447.47500 (NX0G) at Colorado Springs, CO . Full-time to 147.01500 (NX0G) at Cripple Creek, CO .",MARC/PCRC: Tue at 19:30.,,,,,,,,,,,,,,,,,,,,,,,,,,,,,,,,,,,,,,,,,,,
448.65,-5,107.2,NX0G,Woodland Park,CO,OPEN,,,51.62,S,,08,251,38.9939003,-105.05599976,448.65,443.65,107.2,,Teller,On-Air,Mountain ARC (MARC),CCARC,2016-11-17,,,,,,E-power.,,,,,,,,,,MARC,,,"Full-time to 146.68500 (NX0G) at Lake George, Badger Mountain, CO . Full-time to 146.82000 (NX0G) at Woodland Park, CO . Full-time to 447.47500 (NX0G) at Colorado Springs, CO . Full-time to 147.01500 (NX0G) at Cripple Creek, CO .",MARC/PCRC: Tue at 19:30.,,,,,,,,,,,,,,,,,,,,,,,,,,,,,,,,,,,,,,,,,,,
927.9,-25,D205,KA0WUC,Woodland Park,CO,OPEN,,,51.63,S,,08,3750,38.99380112,-105.05699921,927.9,902.9,D205,,Teller,On-Air,MARC,CCARC,2012-11-10,,,,,,,,,,,,,,,,,,,,,,,,,,,,,,,,,,,,,,,,,,,,,,,,,,,,,,,,,,,,,,,
449.325,-5,103.5,KA4EPS,"Woodland Park, Paradise Pines",CO,OPEN,A,,52,S,,08,9503,38.9878006,-105.04399872,449.325,444.325,103.5,103.5,Teller,On-Air,KA4EPS,CCARC,2019-04-01,,,,,"Small coverage repeater node covering Woodland Park, CO when not linked. When linked to the Florida hub, coverage from Key West to Melbourne, Florida can be expected.",E-power. Allstar Node 27976,http://www.ka4eps.com,DM78LX,,27976,,,,,,Amateur Radio Motorcycle Club,Node # 27976,,,Sunday 1900 MST Tuesday 1900 MST,,,,,,,,,,,,,,,,,,,,,,,,,,,,,,,,,,,,,,,,,,,
447.625,-5,100,KD0MDP,"Falcon, Black Forest",CO,OPEN,EIA,,52.21,SSE,ON - IDLE,08,13294,39.04370117,-104.60800171,447.625,442.625,100,100,El Paso,On-Air,KD0MDP,,2015-06-02,,,,7301,,Linked.,,,363976,28299,,,,,,The Fun Machine,,,Full-time to the The Fun Machine System .,,,,,,,,,,,,,,,,,,,,,,,,,,,,,,,,,,,,,,,,,,,,
449.8,-5,123,N0FH,Estes Park,CO,OPEN,EI,,52.27,NNW,ON - IDLE,08,120,40.37720108,-105.52100372,449.8,444.8,123,,Larimer,On-Air,Estes Valley ARC,CCARC,2017-08-05,,,,7268,,E-Power,,,625757,,"The EchoLink node connects to both machines. The node is open (no passwords; touch tone only the the ' * ' character followed by a four, five, or six digit node number where you wish to connect). The disconnect is ' # '.",,,,,,"Both Echolink and IRLP are open, IRLP connect is a four digit node number only and '73' to disconnect. Top of Hour time is announced from 0600 to 2200.",,"Full-time to 146.68500 (N0FH) at Estes Park, CO .",ARES D-10: Thu at 19:00.,,,,,,,,,,,,,,,,,,,,,,,,,,,,,,,,,,,,,,,,,,,
447.725,-5,131.8,W7RF,Fort Collins,CO,OPEN,,,52.5,N,,08,8194,40.49599838,-105.07900238,447.725,442.725,131.8,,Larimer,On-Air,W7RF,CCARC,2018-05-13,,,,,,,,DN70LL,,,,,,,,,,,,,,,,,,,,,,,,,,,,,,,,,,,,,,,,,,,,,,,,,,,,,,,
1283.55,-20,100,K1TJ,Fort Collins,CO,OPEN,,,54.26,N,,08,3620,40.51530075,-105.14700317,1283.55,1263.55,100,,Larimer,On-Air,K1TJ Repeater System,CCARC,2013-01-01,,,,,Northern Colorado Front Range,,http://www.k1tj.com/,DN70KM,,,,,,,,,,,,,,,,,,,,,,,,,,,,,,,,,,,,,,,,,,,,,,,,,,,,,,,
447.45,-5,123,KC0RBT,Fort Collins,CO,OPEN,E,,54.26,N,ON - IDLE,08,276,40.51530075,-105.14700317,447.45,442.45,123,123,Larimer,On-Air,,CCARC,2020-03-22,,,,,,,,,447450,,,,,,,,,,,,,,,,,,,,,,,,,,,,,,,,,,,,,,,,,,,,,,,,,,,,,,
446.7375,-5,CC,N0AOL,Fort Collins,CO,OPEN,,D,54.26,N,,08,8505,40.51530075,-105.14700317,446.7375,441.7375,,,Larimer,On-Air,N0AOL - NoCo C-Bridge Network,CCARC,2019-11-27,,,,,Wide area: North Front Range.,DMR-MARC World Wide Network,http://nocodmr.kt0l.net:8080/nocodmr/documentation.htm,DN70KM,,,,,,,,,Repeater ID: 310803,,,"DMR World Wide Net: Sat at 10:00. TS 1 Group Call 1 http://www.dmr-marc.net/ Tac 310 Net: Sun at 18:00, TS 1 Group Call 310 .",yes,2,310803,NoCo c Record retrieved from radioid.net,,,,,,,,,,,,,,"Open Talkgroup View Assignment TS TG Access Worldwide 1 1 North America 1 3 WW English FT 1 13 TAC 310 1 310 Local/Cluster 2 2 N. Colorado 2 3171 function myFunction(id) { var x = document.getElementById(id); if (x.className.indexOf(""w3-show"") == -1) { x.className += "" w3-show""; } else { x.className = x.className.replace("" w3-show"", """"); } }",,,,,,,,,1,1,1,1,2,2,,,,,,,,,,,
146.685,-0.6,107.2,NX0G,"Lake George, Badger Mountain",CO,OPEN,,,55.24,SSW,,08,169,39.04940033,-105.51300049,146.685,146.085,107.2,107.2,Park,On-Air,Mountain ARC (MARC),CCARC,2016-11-17,,,,,,"Closed autopatch, e-power.",,DM79FB,,,Autopatch: 911,,,,,,,,"Full-time to 146.82000 (NX0G) at Woodland Park, CO . Full-time to 448.65000 (NX0G) at Woodland Park, CO . Full-time to 447.47500 (NX0G) at Colorado Springs, CO . Full-time to 147.01500 (NX0G) at Cripple Creek, CO .",MARC/PCRC: Tue at 19:30.,,,,,,,,,,,,,,,,,,,,,,,,,,,,,,,,,,,,,,,,,,,
147.36,0.6,107.2,KC0CVU,"Lake George, Badger Mountain",CO,OPEN,I,,55.25,SSW,,08,170,39.0489006,-105.51200104,147.36,147.96,107.2,107.2,Park,On-Air,,CCARC,2018-01-15,,,,3854,Wide area.,E-power.,CMRG Repeaters,DM79FB,,,,,,,,,,,,,,,,,,,,,,,,,,,,,,,,,,,,,,,,,,,,,,,,,,,,,,,
147.39,0.6,CC,W0DMR,"Fort Collins, Timnath",CO,OPEN,,D,55.7,N,,08,12562,40.54460144,-104.94400024,147.39,147.99,,,Larimer,On-Air,KT0L - NoCo C-Bridge Network,CCARC,2019-11-27,,,,,"Fort Collins east side, into Red Feather Lakes area.",,Documentation,,,,,,,,,,,,,Tac 310 Net: Sun at 18:00.,yes,2,310822,NoCO c Record retrieved from radioid.net,,,,,,,,,,,,,,"Open Talkgroup View Assignment TS TG Access TAC 310 1 310 DCI Bridge 1 3100 N. Colorado 1 3171 Mountain Reg USA 1 3177 Local/Cluster 2 2 function myFunction(id) { var x = document.getElementById(id); if (x.className.indexOf(""w3-show"") == -1) { x.className += "" w3-show""; } else { x.className = x.className.replace("" w3-show"", """"); } }",,,,,,,,,,,,1,2,1,1,1,,,,,,,,,
446.875,-5,CC,K7PFJ,"Granby, Mt Chauncey",CO,OPEN,,D,55.72,WNW,,08,15899,40.08610153,-105.93900299,446.875,441.875,,,Clear Creek,On-Air,,,2019-11-27,,,,,,,http://www.rmham.org,,,,,,,,,RMHAM,,,,,yes,7,310838,RMHAM c Record retrieved from radioid.net,,,,,,,,,,,,,,,,,,,,,,,,,,,,,,,,,,,,,,,
146.82,-0.6,123,KA0YDW,Granby,CO,OPEN,,,55.72,WNW,,08,145,40.08610153,-105.93900299,146.82,146.22,123,,Grand,,GCARA,CCARC,2014-09-06,,,,,,E-power.,,,,,,,,,,,,,,,,,,,,Unknown,,,,,,,,,,,,,,,,,,,,,,,,,,,,,,,,,,,,,
147.39,0.6,88.5,KB0VJJ,"Breckenridge, Bald Mountain",CO,OPEN,,,55.98,WSW,,08,24,39.44390106,-105.96900177,147.39,147.99,88.5,123,Summit,On-Air,Colorado Connection,CCARC,2019-11-08,,,,,Wide area.,12,Breckenridge Repeater,DM79AK,,,,,,,,,"Please Note that 146.790 is the old Breckenridge frequency and this repeater may return to that frequency eventually but is now working on 147.390-. This machine has a split tone, 88.5 rx and 123.0 tx",,Full-time to the Colorado Connection System .,Central Colorado Traffic Net: Daily at 19:30. Colorado Connection Net (all welcome): Thu at 20:00. Statewide ARES: Sun at 20:00.,,,,,,,,,,,,,,,,,,,,,,,,,,,,,,,,,,,,,,,,,,,
449.7,-5,107.2,,Lake George,CO,OPEN,,,56.02,SSW,,08,8214,38.97969818,-105.35700226,449.7,444.7,107.2,,Park,,CMRG,CCARC,2012-11-12,,,,,,,,,,,,,,,,,,,,,,,,,,Unknown,,,,,,,,,,,,,,,,,,,,,,,,,,,,,,,,,,,,,
445.0875,-5,CC,N0SZ,"Breckenridge, Baldy",CO,OPEN,,D,56.1,WSW,,08,16780,39.45899963,-105.97899628,445.0875,440.0875,,,Fremont,On-Air,K2AD,,2019-11-27,,,,,,,http://www.rmham.org/,DM79AL,,,,,,,,Rocky Mountain Ham Radio,,,,,yes,7,310830,RMHAM c Record retrieved from radioid.net,,,,,,,,,,,,,,,,,,,,,,,,,,,,,,,,,,,,,,,
446.75,-5,CC,K7PFJ,"Fort Collins, Horsetooth Mountain",CO,OPEN,,D,56.15,N,,08,8715,40.53879929,-105.17900085,446.75,441.75,,,Larimer,On-Air,Rocky Mountain Ham Radio,CCARC,2019-12-09,,,,,,,http://www.rmham.org,,,,,,,,,,See website for complete info on color codes/time slot assignment.,,Full-time to the Colorado TRBO System .,,yes,7,310814,RMHR c Record retrieved from radioid.net,,,,,,,,,,,,,,"Open Talkgroup View Assignment TS TG Access Rocky Mountain Wide 1 700 Northern Colorado Regional 2 721 function myFunction(id) { var x = document.getElementById(id); if (x.className.indexOf(""w3-show"") == -1) { x.className += "" w3-show""; } else { x.className = x.className.replace("" w3-show"", """"); } }",1,,,2,,,,,,,,,,,,,,,,,,,,,
145.265,-0.6,CC,KB0VGD,"Fort Collins, Horsetooth Mountain",CO,OPEN,,D,56.15,N,"KB0VGD Marcos 2M Horsetooth Horsetooth Mtn VHF, Wide area coverage. Please use ONLY TG 310831, TG 3171, TG 3108, and TG 2 (Local 2) on Time Slot 2 (TS2). ALL OTHER TG connections will be directed to Time Slot 1 (TS1).",08,14274,40.53879929,-105.17900085,145.265,144.665,,,Larimer,On-Air,W0DMR - NoCo C-bridge Network,CCARC,2019-11-27,,,,,Northern Colorado Front Range Wide Area coverage.,,http://www.w0dmr.org/,,,,"Repeater ID: 310831, TS 1: TG 91 - World Wide, TG 93 - North America, TG 3100 USA. TS 2: TG 2 - Local, TG 3171 - No. Colorado, TG 3108 Colorado Statewide.",,,,,Brandmeister Network,"Any additional Brandmeister talk group is available on time slot 1, too many to list here, see website. https://dmrx.net/files/US_BM_User_Guide.pdf",,,,yes,2,310831,DMR-Plus c Record retrieved from radioid.net,,,,,,,,,,,,,BrandMeister US,"Open Talkgroup View Assignment TS TG Access Worldwide English FT 1 91 Full-Time North America 1 93 Full-Time DCI Bridge 1 3100 Full-Time Local/Cluster 2 2 Colorado 2 3108 Full-Time N. Colorado 2 3171 Full-Time function myFunction(id) { var x = document.getElementById(id); if (x.className.indexOf(""w3-show"") == -1) { x.className += "" w3-show""; } else { x.className = x.className.replace("" w3-show"", """"); } }",,,,,,,,,,1,,,2,2,1,,1,2,,,,,,,
145.115,-0.6,100,W0UPS,"Fort Collins, Horsetooth Mountain",CO,OPEN,E,,56.37,N,ON - IDLE,08,123,40.53969955,-105.19599915,145.115,144.515,100,100,Larimer,On-Air,Northern Colorado ARC,CCARC,2016-10-25,,,,,Wide area.,7,,DN70JM,4236,,,,,,,,,,,,,,,,,,,,,,,,,,,,,,,,,,,,,,,,,,,,,,,,,,,,,,
224.52,-1.6,100,W0UPS,"Fort Collins, Horsetooth Mountain",CO,OPEN,,,56.37,N,,08,275,40.53969955,-105.19599915,224.52,222.92,100,100,Larimer,On-Air,Northern Colorado ARC,CCARC,2018-03-21,,,,,,E-power.,,,,,,,,,,,,,,,,,,,,,,,,,,,,,,,,,,,,,,,,,,,,,,,,,,,,,,,,,
447.275,-5,100,W0UPS,"Fort Collins, Horsetooth Mountain",CO,OPEN,,,56.37,N,,08,126,40.53969955,-105.19599915,447.275,442.275,100,100,Larimer,On-Air,Northern Colorado ARC,CCARC,2020-01-23,,,,,Wide area.,"Closed autopatch, e-power.",,,,,,,,,,,,,,,,,,,,,,,,,,,,,,,,,,,,,,,,,,,,,,,,,,,,,,,,,
449.425,-5,103.5,WC3W,Grand Lake,CO,OPEN,A,,57.03,NW,,08,18131,40.23920059,-105.84700012,449.425,444.425,103.5,103.5,Clear Creek,On-Air,,,2019-09-21,,,,,"Grand Lake, CO",,,,,45202,,,,,,,Linked to the Allstar Florida Hub,,,Sunday and Tuesday nights at 7 PM MT,,,,,,,,,,,,,,,,,,,,,,,,,,,,,,,,,,,,,,,,,,,
147.36,0.6,100,W0QEY,"Fort Collins, CSU Durward Hall",CO,OPEN,,,57.64,N,,08,125,40.57080078,-105.07700348,147.36,147.96,100,100,Larimer,On-Air,CO State Univ ARC,CCARC,2017-03-11,,,,,Map,Closed autopatch.,,,,,,,,,,,,,,,,,,,,,,,,,,,,,,,,,,,,,,,,,,,,,,,,,,,,,,,,,
446.7625,-5,CC,W0QEY,"Fort Collins, CSU Durward Hall",CO,OPEN,,D,58.19,N,,08,18416,40.57759857,-105.09300232,446.7625,441.7625,,,Larimer,On-Air,RMHAM,,2020-02-10,,,,,,,https://www.rmham.org/wordpress/dmr-radio-site-information/,,,,,,,,,CSUARC,,,,Red Cross Net on Wide - Third Thursday of the month at 1900 Tech Net on Wide - First Saturday of the month at 1900,yes,8,,c Record retrieved from radioid.net,,,,,,,,,,,,,,,,,,,,,,,,,,,,,,,,,,,,,,,
446.7625,-5,CC,W0QEY,"Fort Collins, CSU Durward Hall",CO,OPEN,,D,58.19,N,,08,18417,40.57759857,-105.09300232,446.7625,441.7625,,,Larimer,On-Air,RMHAM,,2020-02-10,,,,,,,https://www.rmham.org/wordpress/dmr-radio-site-information/,,,,,,,,,CSUARC,,,,Red Cross Net on Wide - Third Thursday of the month at 1900 Tech Net on Wide - First Saturday of the month at 1900,yes,8,,c Record retrieved from radioid.net,,,,,,,,,,,,,,,,,,,,,,,,,,,,,,,,,,,,,,,
446.8125,-5,,W0QEY,"Fort Collins, CSU Durward Hall",CO,OPEN,,S,58.19,N,,08,8901,40.57770157,-105.09300232,446.8125,441.8125,,,Larimer,On-Air,W0QEY CSU,CCARC,2017-05-31,yes,W0QEY (B) Repeater,jfindu lookup / dstar-users lookup,,Fort Collins Local Area,D-Star Gateway,,DN70KN,,,,,,,,,Free Star,,,,,,,,,,,,,,,,,,,,,,,,,,,,,,,,,,,,,,,,,,,,,,
447.2,-5,82.5,N6RFI,"Severance, Cactus Hill",CO,OPEN,,,58.34,N,,08,8188,40.58100128,-104.90599823,447.2,442.2,82.5,,Weld,On-Air,N6RFI,CCARC,2017-03-11,,,,,,,,DN70NN,,,,,,,,,,,,,,,,,,,,,,,,,,,,,,,,,,,,,,,,,,,,,,,,,,,,,,,
146.7,-0.6,107.2,WB0QMR,Breckenridge,CO,OPEN,I,,58.56,WSW,,08,23,39.4817009,-106.03800201,146.7,146.1,107.2,,Summit,On-Air,GRARC,CCARC,2013-01-07,,,,3972,,E-power.,,,,,,,,,,,,,,,,,,,,,,,,,,,,,,,,,,,,,,,,,,,,,,,,,,,,,,,,,
449.85,-5,100,W0QEY,"Fort Collins, CSU Durward Hall",CO,OPEN,,,58.67,N,,08,124,40.58530045,-105.08399963,449.85,444.85,100,100,Larimer,On-Air,CO State Univ ARC,CCARC,2012-11-16,,,,,Map,Closed autopatch.,,,,,,,,,,,,,,,,,,,,,,,,,,,,,,,,,,,,,,,,,,,,,,,,,,,,,,,,,
927.95,-25,100,W0QEY,"Fort Collins, CSU Durward Hall",CO,OPEN,,,58.67,N,,08,3592,40.58530045,-105.08399963,927.95,902.95,100,100,Larimer,On-Air,,CCARC,2019-09-01,,,,,Northern Front Range,,,,,,,,,,,,,,,,,,,,,,,,,,,,,,,,,,,,,,,,,,,,,,,,,,,,,,,,,,
446.775,-5,CC,W0DMR,"Fort Collins, Timnath",CO,OPEN,,D,59.15,N,"Rick KT0L Repeater Ft Collins, CO (Limited coverage)",08,10995,40.59379959,-104.9260025,446.775,441.775,,,Larimer,On-Air,W0DMR - NoCo C-bridge Network,CCARC,2019-11-27,,,,,"Fort Collins east side, into Red Feather Lakes area.",,W0DMR,DN70MO,,,"Repeater ID: 310806, TS 1: TG 91 - World Wide, TG 93 - North America, TG 3100 USA. TS 2: TG 2 - Local, TG 3171 - No. Colorado, TG 3108 Colorado Statewide.",,,,,Brandmeister Network,"Any additional Brandmeister talk group is available on time slot 1, too many to list here, see website. https://dmrx.net/files/US_BM_User_Guide.pdf",,,,yes,2,310806,NoCO c Record retrieved from radioid.net,,,,,,,,,,,,,BrandMeister US,"Open Talkgroup View Assignment TS TG Access Worldwide English FT 1 91 Full-Time North America 1 93 Full-Time DCI Bridge 1 3100 Full-Time Local/Cluster 2 2 Colorado 2 3108 Full-Time N. Colorado 2 3171 Full-Time function myFunction(id) { var x = document.getElementById(id); if (x.className.indexOf(""w3-show"") == -1) { x.className += "" w3-show""; } else { x.className = x.className.replace("" w3-show"", """"); } }",,,,,,,,,,1,,,2,2,1,,1,2,,,,,,,
147.105,0.6,107.2,WA0DE,Simla,CO,OPEN,,,59.65,SE,,08,12167,39.22669983,-104.08999634,147.105,147.705,107.2,107.2,Elbert,On-Air,ARES of Douglas and Elbert Counties,CCARC,2020-02-11,,,,,"I-70, E. Arapahoe, Elbert, Lincoln Counties 40 mi radius.",Linked to CRA 448.425 - WestCreek,http://www.w0cra.org/,DM79WF,,,,,,,,Colorado Repeater Association,,,"Full-time to 448.42500 (W0CRA) at Larkspur, Westcreek, CO .",,,,,,,,,,,,,,,,,,,,,,,,,,,,,,,,,,,,,,,,,,,,
146.97,-0.6,100,KB0SRJ,"Colorado Springs, Pikes Peak",CO,OPEN,,,62.19,S,,08,44,38.84000015,-105.04000092,146.97,146.37,100,,El Paso,On-Air,Pikes Peak FM Assoc,CCARC,2019-11-11,,,,,"Wide area. line-of-sight coverage to pretty much the entire prairie of Colorado, from the mountains eastward to Kansas, with signal as far as New Mexico and Wyoming depending on where you are.",e-power.,PPFMA Repeaters,DM78LU,,,,,,,,,,,"Linkable to 448.45000 (KB0SRJ) at Colorado Springs, Pikes Peak, CO .",listed on http://ppfma.org,,,,,,,,,,,,,,,,,,,,,,,,,,,,,,,,,,,,,25,,,,,,
448.45,-5,100,KB0SRJ,"Colorado Springs, Pikes Peak",CO,OPEN,,,62.19,S,,08,54,38.84000015,-105.04000092,448.45,443.45,100,,El Paso,On-Air,Pikes Pk FM Assoc,CCARC,2019-03-07,,,,,"Wide area. line-of-sight coverage to pretty much the entire prairie of Colorado, from the mountains eastward to Kansas, with signal as far as New Mexico and Wyoming depending on where you are.",E-power.,PPFMA Repeaters,DM78LU,,,,,,,,,,,"Linkable to 146.97000 (KB0SRJ) at Colorado Springs, Pikes Peak, CO .",see http://www.ppfma.org,,,,,,,,,,,,,,,,,,,,,,,,,,,,,,,,,,,,,25,,,,,,
447.7,-5,100,W0UPS,"Fort Collins, Buckhorn Mountain",CO,OPEN,,,62.77,NNW,,08,5853,40.61109924,-105.3239975,447.7,442.7,100,100,Larimer,On-Air,Northern Colorado Amateur Radio Club,,2014-09-02,,,,,Wide Area Coverage,,http://ncarc.net/,,,,,,,,,,,,"Linkable to 146.85000 (W0UPS) at Greeley, UNC, CO . Linkable to 146.62500 (W0UPS) at Fort Collins, Buckhorn Mountain, CO . Full-time to 224.84000 (W0UPS) at Fort Collins, Buckhorn Mountain, CO .",,,,,,,,,,,,,,,,,,,,,,,,,,,,,,,,,,,,,,,,,,,,
147.27,0.6,,,Colorado Springs,CO,OPEN,,,62.92,S,,08,46,38.83810043,-104.82099915,147.27,147.87,,,El Paso,On-Air,TRA,,2016-08-10,,,,,,E-power.,,,,,,,,,,,,,,,,,,,,,,,,,,,,,,,,,,,,,,,,,,,,,,,,,,,,,,,,,
146.91,-0.6,151.4,K0IRP,Colorado Springs,CO,OPEN,,,62.92,S,,08,43,38.83810043,-104.82099915,146.91,146.31,151.4,151.4,El Paso,On-Air,GGARC,CCARC,2016-08-10,,,,,,E-power.,,,,,,,,,,,,,,,,,,,,,,,,,,,,,,,,,,,,,,,,,,,,,,,,,,,,,,,,,
147.39,0.6,103.5,W0MOG,Colorado Springs,CO,OPEN,,,62.92,S,,08,48,38.83810043,-104.82099915,147.39,147.99,103.5,,El Paso,On-Air,W0MOG,CCARC,2016-08-10,,,,,,,,,,,,,,,,,,,,,,,,,,,,,,,,,,,,,,,,,,,,,,,,,,,,,,,,,,,,,,,
147.135,0.6,100,AA0L,Colorado Springs,CO,OPEN,,,62.98,S,,08,8176,38.83969879,-104.80000305,147.135,147.735,100,,El Paso,On-Air,AA0L,CCARC,2016-04-08,,,,,,6,,DM78OU,,,,,,,,,,,,,,,,,,,,,,,,,,,,,,,,,,,,,,,,,,,,,,,,,,,,,,,
449.575,-5,,,Colorado Springs,CO,CLOSED,,,63.2,S,,08,8211,38.83390045,-104.82099915,449.575,444.575,,,El Paso,On-Air,RMHARC,CCARC,2016-08-10,,,,,,,,,,,,,,,,,,,,,,,,,,,,,,,,,,,,,,,,,,,,,,,,,,,,,,,,,,,,,,,
448.3,-5,100,AA0L,Colorado Springs,CO,OPEN,,,63.2,S,,08,8200,38.83390045,-104.82099915,448.3,443.3,100,,El Paso,On-Air,AA0L,CCARC,2016-08-10,,,,,,,,,,,,,,,,,,,,,,,,,,,,,,,,,,,,,,,,,,,,,,,,,,,,,,,,,,,,,,,
447.35,-5,151.4,K0IRP,Colorado Springs,CO,OPEN,,,63.2,S,,08,50,38.83390045,-104.82099915,447.35,442.35,151.4,,El Paso,On-Air,GGARC,CCARC,2015-03-04,,,,,,E-power.,,,,,,,,,,,,,,,,,,,,,,,,,,,,,,,,,,,,,,,,,,,,,,,,,,,,,,,,,
224.06,-1.6,,KB0SRJ,Colorado Springs,CO,CLOSED,,,63.2,S,,08,8182,38.83390045,-104.82099915,224.06,222.46,,,El Paso,,Pikes Peak FM Association (PPFMA),CCARC,2012-11-12,,,,,Wide area.,"E-power, linked.",,,,,,,,,,,,,,,,,,,,Unknown,,,,,,,,,,,,,,,,,,,,,,,,,,,,,,,,,,,,,
447.025,-5,123,KF0WF,Colorado Springs,CO,OPEN,,,63.2,S,,08,49,38.83390045,-104.82099915,447.025,442.025,123,,El Paso,On-Air,Colorado Springs ARA,CCARC,2016-08-10,,,,,,"Closed autopatch, e-power, linked, remote base.",,,,,,,,,,,,,,,,,,,,,,,,,,,,,,,,,,,,,,,,,,,,,,,,,,,,,,,,,
927.875,-25.9,,KI0HC,"Fort Collins, Buckhorn Mountain",CO,OPEN,,,63.2,NNW,,08,18424,40.61669922,-105.32800293,927.875,902.025,,,Larimer,On-Air,RM Ham,CCARC,2020-01-01,,,,,"Wide area coverage, I 25 from Cheyenne south to MM 20 just north of Trinidad. I 76 East to MM 100. I 70 from Idaho Springs to Genoa. Highway 24 from the Colorado Springs to Limon. Highway 24 west of Colorado Springs is spotty to Hartsel. US 50 from Canon City to Las Animas. Salida south to the San Luis Valley to Antonito. Salida North to just south of Leadville. Repeater Coverage Map",,,,,,,,,,,,,,Full-time to the The 900 P25 Network System .,,,,,,,,,yes,293,yes,,,,,,,,,,,,,,,,,,,,,,,,,,,,,,,,,
448.25,-5,123,N0KG,"Colorado Springs, Broadmoor Area",CO,OPEN,,,63.2,S,,08,8198,38.83390045,-104.82099915,448.25,443.25,123,,El Paso,On-Air,,CCARC,2018-09-25,,,,,Colorado Springs,,,DM78OU,,,,,,,,,,,,,,,,,,,,,,,,,,,,,,,,,,,,,,,,,,,,,,,,,,,,,,,
447.475,-5,107.2,NX0G,Colorado Springs,CO,OPEN,,,63.2,S,,08,51,38.83390045,-104.82099915,447.475,442.475,107.2,,El Paso,On-Air,Mountain ARC (MARC),CCARC,2019-11-07,,,,,,"Closed autopatch, e-power.",,,,,,,,,,,,,"Full-time to 146.68500 (NX0G) at Lake George, Badger Mountain, CO . Full-time to 146.82000 (NX0G) at Woodland Park, CO . Full-time to 448.65000 (NX0G) at Woodland Park, CO . Full-time to 147.01500 (NX0G) at Cripple Creek, CO .",MARC/PCRC: Tue at 1930.,,,,,,,,,,,,,,,,,,,,,,,,,,,,,,,,,,,,,,,,,,,
448.6,-5,114.8,W0MOG,Colorado Springs,CO,OPEN,,,63.2,S,,08,55,38.83390045,-104.82099915,448.6,443.6,114.8,,El Paso,,W0MOG,CCARC,2012-11-10,,,,,,,,,,,,,,,,,,,"Full-time to 927.80000 (W0MOG) at Colorado Springs, CO .",,,,,,,Unknown,,,,,,,,,,,,,,,,,,,,,,,,,,,,,,,,,,,,,
927.8,-25,D116,W0MOG,Colorado Springs,CO,OPEN,,,63.2,S,,08,3537,38.83390045,-104.82099915,927.8,902.8,D116,,Teller,On-Air,,CCARC,2012-11-10,,,,,,6,,,,,,,,,,,,,"Full-time to 448.60000 (W0MOG) at Colorado Springs, CO .",,,,,,,,,,,,,,,,,,,,,,,,,,,,,,,,,,,,,,,,,,,,
447.55,-5,123,WA6IFI,Colorado Springs,CO,OPEN,,,63.2,S,,08,8191,38.83390045,-104.82099915,447.55,442.55,123,,El Paso,On-Air,WA6IFI,CCARC,2015-11-13,,,,,,,,,,,,,,,,,,,,,,,,,,,,,,,,,,,,,,,,,,,,,,,,,,,,,,,,,,,,,,,
445.2,-5,CC,N0SZ,"Fort Collins, Buckhorn Mountain",CO,OPEN,,D,63.21,NNW,,08,18418,40.61700058,-105.32700348,445.2,440.2,,,Larimer,On-Air,RMHAM,,2019-12-28,,,,,,,https://www.rmham.org/wordpress/dmr-radio-site-information/,,,,,,,,,,,,,Red Cross Net on Wide - Third Thursday of the month at 1900 Tech Net on Wide - First Saturday of the month at 1900,yes,7,,c Record retrieved from radioid.net,,,,,,,,,,,,,,,,,,,,,,,,,,,,,,,,,,,,,,,
146.625,-0.6,100,W0UPS,"Fort Collins, Buckhorn Mountain",CO,OPEN,,,63.21,NNW,,08,246,40.61700058,-105.32700348,146.625,146.025,100,100,Larimer,On-Air,Northern Colorado ARC,CCARC,2017-03-11,,,,,Wide area: Northern front range.,E-power.,,DN70IO,,,,,,,,,,,"Linkable to 146.85000 (W0UPS) at Greeley, UNC, CO . Linkable to 224.84000 (W0UPS) at Fort Collins, Buckhorn Mountain, CO .",,,,,,,,,,,,,,,,,,,,,,,,,,,,,,,,,,,,,,,,,,,,
224.84,-1.6,100,W0UPS,"Fort Collins, Buckhorn Mountain",CO,OPEN,,,63.21,NNW,,08,3660,40.61700058,-105.32700348,224.84,223.24,100,100,Larimer,On-Air,Northern Colorado ARC,,2019-08-23,,,,,"Wide Area: Northern CO Front Range and into Cheyenne - Laramie, WY","E-power, 25 watts.",,,,,,,,,,,,,"Full-time to 447.70000 (W0UPS) at Fort Collins, Buckhorn Mountain, CO .",,,,,,,,,,,,,,,,,,,,,,,,,,,,,,,,,,,,,,,,,,,,
146.85,-0.6,156.7,AD0TP,Colorado Springs,CO,OPEN,,,63.53,SSE,,08,42,38.83969879,-104.7437973,146.85,146.25,156.7,103.5,El Paso,On-Air,AD0TP,CCARC,2020-02-10,,,,,Greater Colorado Springs Area,,http://www.v7arc.com/,DM78PU,,,,,,,,Village 7 Amateur Radio Club,Please email with comments/signal reports,,,,,,,,,,,,,,,,,,,,,,,,,,,,,,,,,,,,,,,,,,,,,,
448.325,-5,110.9,WB7UPS,Wellington,CO,OPEN,,,66.67,N,,08,8251,40.70389938,-105.00900269,448.325,443.325,110.9,,Larimer,On-Air,,CCARC,2012-11-16,,,,,,,,,,,,,,,,,,,,,,,,,,,,,,,,,,,,,,,,,,,,,,,,,,,,,,,,,,,,,,,
448.725,-5,123,KA0TTF,"Colorado Springs, Fillmore Hill",CO,OPEN,,,66.7,S,,08,56,38.77999878,-104.84999847,448.725,443.725,123,,El Paso,On-Air,KA0TTF,CCARC,2016-04-19,,,,,,,,,,,,,,,,,,,,,,,,,,,,,,,,,,,,,,,,,,,,,,,,,,,,,,,,,,,,,,,
446.95,-5,CC,K7PFJ,"Colorado Springs, Almagre Mountain",CO,OPEN,,D,66.79,S,,08,5220,38.77259827,-104.99299622,446.95,441.95,,,Teller,On-Air,Rocky Mountain Ham Radio,,2019-11-27,,,,,Monument Hill through Pueblo.,,,,,,,,,,,RMHAM,,,"Full-time to 446.98750 (N0SZ) at Boulder, Lee Hill, CO .",,yes,7,310816,RMHR c Record retrieved from radioid.net,,,,,,,,,,,,,,"Open Talkgroup View Assignment TS TG Access Rocky Mountain Wide 1 700 Southern Colorado 2 719 function myFunction(id) { var x = document.getElementById(id); if (x.className.indexOf(""w3-show"") == -1) { x.className += "" w3-show""; } else { x.className = x.className.replace("" w3-show"", """"); } }",1,2,,,,,,,,,,,,,,,,,,,,,,,
927.725,-25.7,D114,WA6IFI,"Colorado Springs, Almagre Mountain",CO,OPEN,,,66.79,S,,08,58,38.77259827,-104.99299622,927.725,902.025,,,Teller,On-Air,WA6IFI,CCARC,2020-01-01,,,,,"Wide area coverage, I 25 from Cheyenne south to MM 20 just north of Trinidad. I 76 East to MM 100. I 70 from Idaho Springs to Genoa. Highway 24 from the Colorado Springs to Limon. Highway 24 west of Colorado Springs is spotty to Hartsel. US 50 from Canon City to Las Animas. Salida south to the San Luis Valley to Antonito. Salida North to just south of Leadville. 50 mi radius. Repeater Coverage Map",12,Yahoo Group,,,,,,,,,,,,Full-time to the The 900 P25 Network System .,,,,,,,,,yes,293,yes,,,,,,,,,,,,,,,,,,,,,,,,,,,,,,,,,
147.18,0.6,100,AA0SP,"Colorado Springs, Almagre Mountain",CO,PRIVATE,,,66.8,S,,08,8178,38.77249908,-104.99299622,147.18,147.78,100,,El Paso,On-Air,AA0SP,CCARC,2017-03-09,,,,,"Located on South Almagre Mountain at 12,367 feet, it provides excellent coverage of nearly all of El Paso County and points east, along with coverage extending south past Pueblo. Locations very close in to the Front Range, or in the shadow of Cheyenne Mountain are not covered well. Since this peak is shorter than Pikes Peak its coverage to the north is not as good as Pikes Peak, although there are points northeast of Colorado Springs where there is coverage.",E-power (solar).,,DM78MS,,,,,,,,,This repeater is available for public service oriented communications with prior coordination. Contact Mike Proctor KB0IAP to coordinate its use.,,,,,,,,,,,,,,,,,,,,,,,,,,,,,,,,,,,,,,,,,,,,,,
145.235,-0.6,CC,N0SZ,"Colorado Springs, Almagre Mountain",CO,OPEN,,D,66.83,S,,08,17250,38.77199936,-104.99299622,145.235,144.635,,,El Paso,On-Air,RMHAM,CCARC,2019-11-27,,,,,Wide area,,Rocky Mountain Ham Radio,DM78MS,,,,,,,,,Voice ID is required for data/GPS/text on TG 705,,,,yes,7,310824,c Record retrieved from radioid.net,,,,,,,,,,,,,,"Open Talkgroup View Assignment TS TG Access Rocky Mountain Wide 1 700 Eastern Colorado 2 705 function myFunction(id) { var x = document.getElementById(id); if (x.className.indexOf(""w3-show"") == -1) { x.className += "" w3-show""; } else { x.className = x.className.replace("" w3-show"", """"); } }",1,,,,,,,,,,,,,,,,,,,2,,,,,
446.7625,-5,CC,N0SZ,"Fairplay, Badger",CO,OPEN,,D,67.06,SW,,08,12698,39.0469017,-105.87000275,446.7625,441.7625,,,Park,On-Air,K7PFJ,,2019-11-27,,,,,,,,,,,,,,,,RMHAM,,,,,yes,7,310827,RMHR c Record retrieved from radioid.net,,,,,,,,,,,,,,"Open Talkgroup View Assignment TS TG Access Rocky Mountain Wide 1 700 Central Regional 2 720 function myFunction(id) { var x = document.getElementById(id); if (x.className.indexOf(""w3-show"") == -1) { x.className += "" w3-show""; } else { x.className = x.className.replace("" w3-show"", """"); } }",1,,2,,,,,,,,,,,,,,,,,,,,,,
447.65,-5.1,103.5,KC0VJD,"Limon, Cedar Point",CO,OPEN,,,68.11,SE,,08,18718,39.374653,-103.8021,447.65,442.6,103.5,,Lincoln,Testing,Delbert Noakes (KC0VJD),,2020-05-07,,,,,"Limon, Agate, Hugo, Genoa, Deer Trail, Simla,",,,,,,,,,,,,,,,,,,,,,,,,,,,,,,,,,,,,,,,,,,,,,,,,,,,,,,,,,,
449.25,-5,123,K0UPS,Cedar Point,CO,OPEN,EI,,68.28,SE,Node Offline,08,9583,39.37030029,-103.8010025,449.25,444.25,123,123,Elbert,On-Air,K0UPS Club c/o N1UPS,CCARC,2020-04-23,,,,3349,"I-70 Limon, Co area.",Full duplex node.,,DM89CI,3349,,** [StarStar] Prefix for Echolink Node.,,,,,,"K0UPS Buster Brown Radio Club. North West of Limon, Colorado.",,,,,,,,,,,,,,,,,,,,,,,,,,,,,,,,,,,,,,,,,,,,,,
447.125,-5,103.5,AA0BF,"Fairplay, Sacramento Mountain",CO,OPEN,A,,69,WSW,,08,5336,39.20999908,-106.08699799,447.125,442.125,103.5,103.5,Park,On-Air,AA0BF,CCARC,2019-03-08,,,,,"Covers Fairplay, Alma, and western South Park.",Emergency automatic generator.,,DM69wf,,45840,,,,,,"Park County Radio Club, AB0PC","Normally linked via Allstar to 45835 - AB0PC, Bailey, CO.",,,"When connected to AB0PC - Bailey: ARES Mon 19:00, Park County Radio Club Wed 19:30.",,,,,,,,,,,,,,,,,,,,,,,,,,,,,,,,,,,,,,,,,,,
145.13,-0.6,88.5,KB0VJJ,"Colorado Springs, Cheyenne Mountain",CO,OPEN,,,69.02,S,,08,37,38.74520111,-104.86199951,145.13,144.53,88.5,123,El Paso,On-Air,Colorado Connection,CCARC,2020-05-27,,,,,Wide area: South toward Pueblo and north to Monument. Decent coverage to the east. Little coverage to the west.,9,,,,,,,,,,,Linked into the Colorado Connection System,,Full-time to the Colorado Connection System .,Colorado Traffic Net: Daily at 19:00. Colorado Connection Net (all welcome): Thu at 20:00. Statewide ARES: Sun at 20:00. Colorado Preparedness Net: Sat at 09:30,,,,,,,Listen Live,,,,,,,,,,,,,,,,,,,,,,,,,,,,,,,,,,,,
446.9125,-5,,KC0CVU,"Colorado Springs, Cheyenne Mountain",CO,OPEN,,S,69.03,S,,08,8087,38.74509811,-104.86199951,446.9125,441.9125,,,El Paso,On-Air,Cheyenne Mountain Repeater Group (CMRG),,2019-12-28,yes,KC0CVU (B) Repeater,jfindu lookup / dstar-users lookup,,,,,,,,,,,,,,This DStar repeater is up but not truly functional. It serves as a local repeater presently as it is not connected to the internet for now.,,,,,,,,,,,,,,,,,,,,,,,,,,,,,,,,,,,,,,,,,,,,,,
445.0625,-5,CC,N0SZ,"Colorado Springs, Cheyenne Mountain",CO,OPEN,,D,69.03,S,"Welcome to The RMHAM DMR Machine, located on Cheyenne Mountain above Colorado Springs This machine sits atop Cheyenne Mountain overlooking Colorado Springs and Pueblo. The talkgroups that are setup on this system are the Fun Machine Analog transcoded and statically linked on TS1 as TG310815. At this time TS2 will carry TG3108 and 3740 statically and the following are all PTTable with a 15 minute activity timeout (310,31079,31080,31082,31083,31084,31085,31086,31088,310895,311,312,31200,31203,313,31327,314,3140,31400,31408,3148,315,31563,316,31600,31601,31602,31603,31604,31605,31606,31607,31608,31609,31623,31648,31652,317,318,319,3740,91,9112,93). No other TGs are PTTable from this system unless they are enabled. If you have a specific TG that would would like added to TS2 as a PTT TG please let me know and I will consider adding it.",08,12355,38.74509811,-104.86199951,445.0625,440.0625,,,El Paso,On-Air,Rocky Mountain Ham Radio,CCARC,2019-11-27,,,,,,Rocky Mountain Ham Radio Brandmeister Sites,,,,,,,,,,N0SZ Colorado Springs Brandmeister,"This machine sits atop Cheyenne Mountain overlooking Colorado Springs and Pueblo. The talkgroups that are setup on this system are the Fun Machine Analog transcoded and statically linked on TS1 as TG310815. At this time TS2 will carry TG3108 statically and the following are all PTTable with a 15 minute activity timeout (310,31079,31080,31082,31083,31084,31085,31086,31088,311,312,31200,31203,313,31327,314,3140,31400,31408, 3148,315,31563,316,31600,31601,31602,31603,31604,31605,31606,31607,31608,31609,31623,31648,31652,317,318,319,3740,91,9112,93). No other TGs are PTTable from this system unless they are enabled. If you have a specific TG that would would like added to TS2 as a PTT TG please let me know and I will consider adding it.",,,,yes,1,310857,RMHAM c Record retrieved from radioid.net,,,,,,,,,,,,,,"Open Talkgroup View Assignment TS TG Access TAC 310 2 310 PTT TAC 311 2 311 PTT Colorado 2 3108 Full-Time Colorado Chat 2 31080 PTT function myFunction(id) { var x = document.getElementById(id); if (x.className.indexOf(""w3-show"") == -1) { x.className += "" w3-show""; } else { x.className = x.className.replace("" w3-show"", """"); } }",,,,,,,,,,,,2,,,,,,2,,,2,2,,,
53.13,-1.7,107.2,KC0CVU,"Colorado Springs, Cheyenne Mountain",CO,OPEN,,,69.04,S,,08,8158,38.74499893,-104.86199951,53.13,51.43,107.2,107.2,El Paso,On-Air,Cheyenne Mountain Repeater Group (CMRG),CCARC,2020-04-23,,,,,"Denver to Pueblo, CO",,http://www.cmrg.org,DM78NR,,,,,,,,,,,,,,,,,,,,,,,,,,,,,,,,,,,,,,,,,,,,,,,,,,,,,,,
927.85,-25,D114,KC0CVU,"Colorado Springs, Cheyenne Mountain",CO,OPEN,,,69.04,S,,08,7171,38.74499893,-104.86199951,927.85,902.85,D114,,Teller,On-Air,CMRG,CCARC,2017-03-09,,,,,,9,http://www.cmrg.org,DM78NR,,,,,,,,,,,"Full-time to 147.34500 (KC0CVU) at Colorado Springs, Cheyenne Mountain, CO . Full-time to 448.10000 (KC0CVU) at Colorado Springs, Cheyenne Mountain, CO .",,,,,,,,,,,,,,,,,,,,,,,,,,,,,,,,,,,,,,,,,,,,
145.385,-0.6,,KC0CVU,"Colorado Springs, Cheyenne Mountain",CO,OPEN,,S,69.07,S,,08,8088,38.74449921,-104.86199951,145.385,144.785,,,El Paso,Testing,Cheyenne Mountain Repeater Group (CMRG),CCARC,2020-03-26,yes,KC0CVU (C) Repeater,jfindu lookup / dstar-users lookup,,Wide area,,http://www.cmrg.org,DM78NR,,,,,,,,,"This repeater is operational and linked to XRF720. Currently, INBOUND traffic is making it in but OUTBOUND traffic is not getting to the gateway or reflector. We hope to have this resolved soon.",,,,,,,,,,,,,,,,,,,,,,,,,,,,,,,,,,,,,,,,,,,,,,
447.4,-5,67,WB0WDF,Cripple Creek,CO,OPEN,,,69.31,S,,08,66,38.74670029,-105.1780014,447.4,442.4,67,,Teller,On-Air,WB0WDF,CCARC,2012-06-15,,,,,,"E-power, Solar, Remote Base",,,,,,,,,,,,,,,,,,,,,,,,,,,,,,,,,,,,,,,,,,,,,,,,,,,,,,,,,
147.015,0.6,107.2,NX0G,Cripple Creek,CO,OPEN,,,69.32,S,,08,65,38.7466011,-105.1780014,147.015,147.615,107.2,,Teller,On-Air,Mountain ARC,CCARC,2016-11-17,,,,,,E-power.,,,,,,,,,,,,,"Full-time to 146.68500 (NX0G) at Lake George, Badger Mountain, CO . Full-time to 146.82000 (NX0G) at Woodland Park, CO . Full-time to 448.65000 (NX0G) at Woodland Park, CO . Full-time to 447.47500 (NX0G) at Colorado Springs, CO .",MARC/PCRC: Tue at 19:30.,,,,,,,,,,,,,,,,,,,,,,,,,,,,,,,,,,,,,,,,,,,
145.46,-0.6,67,WB0WDF,Cripple Creek,CO,OPEN,,,69.32,S,,08,64,38.7466011,-105.1780014,145.46,144.86,67,,Teller,On-Air,WB0WDF,CCARC,2012-06-15,,,,,,"E-power, 100% Solar",,,,,,,,,,RGARC,,,,,,,,,,,,,,,,,,,,,,,,,,,,,,,,,,,,,,,,,,,,,,,
146.76,-0.6,107.2,KC0CVU,"Colorado Springs, Cheyenne Mountain",CO,OPEN,,,69.48,S,,08,41,38.73720169,-104.8809967,146.76,146.16,107.2,107.2,El Paso,On-Air,Cheyenne Mountain Repeater Group,CCARC,2018-01-15,,,,,,"Closed autopatch, e-power.",,DM78NR,,,,,,,,,,,,,,,,,,,,,,,,,,,,,,,,,,,,,,,,,,,,,,,,,,,,,,,
448,-5,107.2,KC0CVU,"Colorado Springs, Cheyenne Mountain",CO,OPEN,,,69.48,S,,08,269,38.73720169,-104.8809967,448,443,107.2,,El Paso,On-Air,,CCARC,2018-01-15,,,,,,,CMRG Repeaters,DM78NR,,,,,,,,,,,,,,,,,,,,,,,,,,,,,,,,,,,,,,,,,,,,,,,,,,,,,,,
448.1,-5,107.2,KC0CVU,"Colorado Springs, Cheyenne Mountain",CO,OPEN,,,69.48,S,,08,53,38.73720169,-104.8809967,448.1,443.1,107.2,107.2,El Paso,On-Air,,CCARC,2018-01-15,,,,,Wide area.,"Closed autopatch, e-power.",CMRG Repeaters,DM78NR,,,,,,,,,,,"Full-time to 927.85000 (KC0CVU) at Colorado Springs, Cheyenne Mountain, CO .",,,,,,,,,,,,,,,,,,,,,,,,,,,,,,,,,,,,,,,,,,,,
147.345,0.6,107.2,KC0CVU,"Colorado Springs, Cheyenne Mountain",CO,OPEN,I,,69.49,S,,08,47,38.73720169,-104.87999725,147.345,147.945,107.2,107.2,El Paso,On-Air,,CCARC,2018-01-15,,,,3854,Wide area.,"Closed autopatch, e-power.",http://www.cmrg.org/,DM78NR,,,,,,,,,,,"Full-time to 927.85000 (KC0CVU) at Colorado Springs, Cheyenne Mountain, CO . Full-time to the Cheyenne Mtn Repeater Group System .",,,,,,,,,,,,,,,,,,,,,,,,,,,,,,,,,,,,,,,,,,,,
145.16,-0.6,107.2,W0CRA,"Colorado Springs, Cheyenne Mountain",CO,OPEN,EI,,69.49,S,ON - IDLE,08,38,38.73720169,-104.87999725,145.16,144.56,107.2,107.2,El Paso,On-Air,Colorado Repeater Association,CCARC,2017-11-13,,,,3990,"Wide area: Colorado Springs, Pueblo, and other areas of southeast and south central Colorado.","Closed autopatch, e-power.",http://www.w0cra.org/info/cosprgs.html#145160,,347086,,,,,,,CRA VHF Link System,Switch to this repeater at mile marker 170 on I-25.,,"Full-time to 145.46000 (W0CRA) at Boulder, Eldorado Mountain, CO . Full-time to 147.22500 (W0CRA) at Larkspur, Westcreek, CO .",,,,,,,,,,,,,,,,,,,,,,,,,,,,,,,,,,,,,,,,,,,,
145.445,-0.6,88.5,KB0VJJ,"Leadville, Mosquito Pass",CO,OPEN,,,71.17,WSW,,08,172,39.28139877,-106.18599701,145.445,144.845,88.5,,Lake,On-Air,Colorado Connection,CCARC,2019-08-16,,,,,,E-power (solar).,,,,,,,,,,,"At 13,685;, it is one of the highest 2-meter repeaters in North America.",,Full-time to the Colorado Connection System .,Central Colorado Traffic Net: Daily at 19:30. Colorado Connection Net (all welcome): Thu at 20:00. Statewide ARES: Sun at 20:00.,,,,,,,,,,,,,,,,,,,,,,,,,,,,,,,,,,,,,,,,,,,
445.05,-5,CC,N0SZ,"Leadville, Mosquito Pass",CO,OPEN,,D,71.49,WSW,,08,16783,39.26530075,-106.18199921,445.05,440.05,,,Lake,On-Air,K2AD,CCARC,2019-11-27,,,,,,,http://www.rmham.org/,DM69VG,,,,,,,,Rocky Mountain Ham Radio,,,,,yes,7,310852,RMHR c Record retrieved from radioid.net,,,,,,,,,,,,,RMHAM,"Open Talkgroup View Assignment TS TG Access Southern Colorado 2 719 Full-Time Central Regional 2 720 Full-Time Northern Colorado Regional 2 721 Full-Time function myFunction(id) { var x = document.getElementById(id); if (x.className.indexOf(""w3-show"") == -1) { x.className += "" w3-show""; } else { x.className = x.className.replace("" w3-show"", """"); } }",,2,2,2,,,,,,,,,,,,,,,,,,,,,
145.265,-0.6,100,KB0SRJ,"Colorado Springs, ~2 mi ENE USAFA North Gate",CO,OPEN,,Y,71.97,S,,08,39,38.70000076,-104.90000153,145.265,144.665,,,El Paso,On-Air,Pikes Peak FM Association (http://PPFMA.ORG),CCARC,2019-03-07,,,,,Local. Good coverage of I25 corridor from Baptist Rd south to Fort Carson.,,PPFMA Repeaters,DM78NQ,,,,,,yes,Open ↑ / Open ↓,,,,,,,,,,,,,,,,,,,,,,,,,,,,,,,,,,,,,,,,,,,,,,,,
448.2,-5,CC,W0FT,"Fort Morgan, Fort Morgan EOC",CO,OPEN,,D,72.22,E,,08,10783,40.25030136,-103.80000305,448.2,443.2,,,Morgan,On-Air,,CCARC,2019-11-27,,,,,,Mixed Mode,Rocky Mountain Ham Radio,,,,,,,,,NEAHR,"See the website for more info on Time Slot, Talk Group and Color Code Programming.",,Full-time to the Colorado TRBO System .,,yes,7,310812,RMHR c Record retrieved from radioid.net,,,,,,,,,,,,,,"Open Talkgroup View Assignment TS TG Access Rocky Mountain Wide 1 700 Northern Colorado Regional 2 721 function myFunction(id) { var x = document.getElementById(id); if (x.className.indexOf(""w3-show"") == -1) { x.className += "" w3-show""; } else { x.className = x.className.replace("" w3-show"", """"); } }",1,,,2,,,,,,,,,,,,,,,,,,,,,
146.61,-0.6,107.2,K0RV,"Vail, Bald Mountain",CO,OPEN,,,73.23,W,,08,256,39.60609818,-106.35600281,146.61,146.01,107.2,,Eagle,On-Air,ECHO,CCARC,2012-11-10,,,,,,11,,,,,,,,,,,,,,,,,,,,,,,,,,,,,,,,,,,,,,,,,,,,,,,,,,,,,,,,,
224.8,-1.6,,N0AFO,Vail,CO,OPEN,,,73.91,W,,08,242,39.64030075,-106.37400055,224.8,223.2,,,Eagle,On-Air,ECHO,CCARC,2018-06-02,,,,,,,,,,,,,,,,,,,,,,,,,,,,,,,,,,,,,,,,,,,,,,,,,,,,,,,,,,,,,,,
449.9,-5,107.2,N0AFO,Vail,CO,OPEN,,,73.91,W,,08,243,39.64030075,-106.37400055,449.9,444.9,107.2,107.2,Eagle,On-Air,ECHO,CCARC,,,,,,,,,,,,,,,,,,,,,,,,,,,,,,,,,,,,,,,,,,,,,,,,,,,,,,,,,,,,,,,,
147.24,0.6,156.7,N0ZSN,"Leadville, Quail Mountain",CO,OPEN,,,77.24,WSW,,08,10827,39.25080109,-106.29299927,147.24,147.84,156.7,156.7,Lake,On-Air,,CCARC,2019-07-23,,,,,,,,,,,,,,,,,,,,,,,,,,,,,,,,,,,,,,,,,,,,,,,,,,,,,,,,,,,,,,,
147.075,0.6,88.5,KB0VJJ,"Kremmling, Santoy Peak",CO,OPEN,,,77.33,WNW,,08,166,40.05889893,-106.38800049,147.075,147.675,88.5,123,Grand,On-Air,Colorado Connection,CCARC,2016-05-23,,,,,Flattops Wilderness Area well and can even be worked from the Front Range in some locations. Coverage at the east end of Glenwood Canyon to Eagle is available in some spots along I-70. Map,,,,,,,,,,,,Part of the Colorado Connection system of Repeaters,,Full-time to the Colorado Connection System .,Colorado Traffic Net: Daily at 19:30. Colorado Connection Net (all welcome): Thu at 20:00. Statewide ARES: Sun at 20:00.,,,,,,,,,,,,,,,,,,,,,,,,,,,,,,,,,,,,,,,,,,,
448.575,-5,103.5,WZ0N,Hartsel,CO,OPEN,,,77.71,SW,,08,9840,38.88330078,-105.93299866,448.575,443.575,103.5,103.5,Park,On-Air,,CCARC,2017-11-22,,,,,Western Park County,,,DM78AV,,,,,,,,,,,"Full-time internet linked to 146.89500 (AB0PC) at Bailey, Dick Mountain, CO .",,,,,,,,,,,,,,,,,,,,,,,,,,,,,,,,,,,,,,,,,,,,
445.075,-5,CC,N0SZ,Vail,CO,OPEN,,D,77.81,W,,08,16781,39.63479996,-106.4469986,445.075,440.075,,,Eagle,On-Air,K2AD,CCARC,2019-11-27,,,,,,,http://www.rmham.org/,DM69SP,,,,,,,,Rocky Mountain Ham Radio,,,,,yes,7,310851,RMHR c Record retrieved from radioid.net,,,,,,,,,,,,,,,,,,,,,,,,,,,,,,,,,,,,,,,
147.345,0.6,88.5,KB0VJJ,Vail,CO,OPEN,,,78.21,W,,08,241,39.65539932,-106.45700073,147.345,147.945,88.5,123,Eagle,On-Air,Colorado Connection,CCARC,2017-01-06,,,,,Wide area: Vail Pass to Glenwood Canyon and the Flattops Wilderness to Tennessee Pass. Map,9,,,,,,,,,,,,,Full-time to the Colorado Connection System .,Central Colorado Traffic Net: Daily at 19:3030 Colorado Connection Net (All Welcome): Thu at 20:00. Statewide ARES net: Sun at 20:00.,,,,,,,,,,,,,,,,,,,,,,,,,,,,,,,,,,,,,,,,,,,
447.6,-5,CC,W1VAN,"Red Feather Lakes, Red Feather Lakes",CO,OPEN,,D,80.89,NNW,Static Talkgroups: 3171 - N. Colorado - Slot 2 31083 - CO Severe WX - Slot 1,08,17821,40.80759811,-105.61699677,447.6,442.6,,,Larimer,On-Air,W1VAN,,2019-11-27,,,,,Covers Red Feather Lakes Area,Brandmeister Network,http://www.w0dmr.org,,,,,,,,,W0DMR,,,,,yes,2,310869,brandmeister c Record retrieved from radioid.net,,,,,,,,,,,,,,,,,,,,,,,,,,,,,,,,,,,,,,,
449,-5,67,WB0WDF,"Canon City, eightmile Mountain",CO,OPEN,,,85.16,SSW,,08,33,38.53860092,-105.34899902,449,444,67,67,Fremont,On-Air,WB0WDF,CCARC,2012-06-14,,,,,,"E-power (Solar, Wind)",Mega Link,DM78HM,,,,,,,,,North of the Royal Gorge Bridge.,,Full-time to the Mega-Link System .,,,,,,,,,,,,,,,,,,,,,,,,,,,,,,,,,,,,,,,,,,,,
446.7375,-5,CC,K0RTS,"Genoa, Limon",CO,OPEN,,D,85.58,SE,,08,13581,39.27830124,-103.5,446.7375,441.7375,,,Lincoln,On-Air,K0RTS KC0VJD,CCARC,2019-11-27,,,,,"I-70 H-40 H-287 Arriba, Genoa, Hugo, Limon 50 mile radius",,,,,,,,,,,RMHam,Colorado on TG700 Slot 1 Denver on TG720 Slot 2,,,,yes,8,310829,RMHAM c Record retrieved from radioid.net,,,,,,,,,,,,,,"Open Talkgroup View Assignment TS TG Access Rocky Mountain Wide 1 700 Central Regional 2 720 function myFunction(id) { var x = document.getElementById(id); if (x.className.indexOf(""w3-show"") == -1) { x.className += "" w3-show""; } else { x.className = x.className.replace("" w3-show"", """"); } }",1,,2,,,,,,,,,,,,,,,,,,,,,,
147.06,0.6,103.5,KE0AE,Genoa,CO,OPEN,A,,86.42,SE,,08,128,39.26879883,-103.48799896,147.06,147.66,103.5,,Lincoln,On-Air,BSARC,CCARC,2019-07-21,,,,,"I-70, US-71, US-287, US-40, US-24","APRS repeater / weather station, remote base, e-power (solar - completely off the electrical grid).",http://www.bigsandyradio.com/,DM89GG,,42740,,,,,,,,,,Big Sandy Net: Tues 19:00,,,,,,,,,,,,,,,,,,,,,,,,,,,,,,,,,,,,,,,,,,,
449.3,-5,131.8,N7JJY,"Cheyenne, Chalk Bluffs",WY,OPEN,,Y,89.67,N,,56,34,41.02740097,-104.78399658,449.3,444.3,,,Laramie,On-Air,WU7G,WRCG,2019-06-02,,,,,"Laramie county wy, Northern Weld and Larimer County, CO",,,DN71OA,,,,,,yes,Open ↑ / Open ↓,,,,,,,,,,,,,,,,,,,,,,,,,,,,,,,,,,,,,,,,,,6.25,,,,,,
927.7,-25,D114,KB0TUC,"Canon City, Fremont Peak",CO,OPEN,,,90.22,S,,08,278,38.45389938,-105.28600311,927.7,902.7,D114,,Fremont,On-Air,Royal Gorge ARC,CCARC,2017-03-11,,,,,,,,,,,,,,,,,,,,,,,,,,,,,,,,,,,,,,,,,,,,,,,,,,,,,,,,,,,,,,,
446.7375,-5,CC,K0JSC,"Canon City, Fremont Peak",CO,OPEN,,D,90.24,S,,08,7184,38.45420074,-105.29000092,446.7375,441.7375,,,Fremont,On-Air,,CCARC,2019-11-27,,,,,Fremont county and state wide on Talk Slot 2. 40 mi radius. Repeater Coverage Map,IPSC Link to the Colorado network on Talk Slot 2.,http://www.k0jsc.com,DM78ii,,,,,,,,Rocky Mountain Ham Radio,Talk Slot 2 linked to the RMHAM trbo system/Talk Slot 1 Local.,,Full-time to the Colorado TRBO System .,,yes,7,310815,RMHR c Record retrieved from radioid.net,,,,,,,,,,,,,,"Open Talkgroup View Assignment TS TG Access Rocky Mountain Wide 1 700 Southern Colorado 2 719 function myFunction(id) { var x = document.getElementById(id); if (x.className.indexOf(""w3-show"") == -1) { x.className += "" w3-show""; } else { x.className = x.className.replace("" w3-show"", """"); } }",1,2,,,,,,,,,,,,,,,,,,,,,yes,,
447.25,-5,100,K0JSC,"Canon City, Fremont Peak",CO,OPEN,EIA,,90.24,S,ON - IDLE,08,8879,38.45420074,-105.29000092,447.25,442.25,100,100,Fremont,On-Air,,CCARC,2013-01-27,,,,7301,Wide from Custer County to Park County and Chaffee County to Pueblo County. Repeater Coverage Map,,K0JSC dot Com,DM78ik,363976,28368,,,,,,,,,Full-time to the The Fun Machine System .,Region 2 District 2 ARES Net: Tue at 19:00. EOSS Net: Tue at 20:00. RGARC Net: Wed at 19:00. Region 5 District 1 ARES Net: Wed at 19:30. APRS Net: Sun at 19:00. Region 5 District 2 ARES Net: Sun at 19:30. Statewide ARES Net: Sun at 20:00.,,,,,,,Listen Live,,,,,,,,,,,,,,,,,,,,,,,,,,,,,,,,,,yes,,
53.03,-1.7,88.5,WB0WDF,"Canon City, Fremont Peak",CO,OPEN,,,90.24,S,,08,29,38.45420074,-105.29000092,53.03,51.33,88.5,88.5,Fremont,On-Air,WB0WDF,CCARC,2012-07-10,,,,,,"E-power (Bat). Split Site; TX Fremont Peak, RX 8 Mile Mountain",Http://www.qsl.net/rghc,DM78IK,,,,,,,,RGARC,Split site Fremont peak transmitter and 8 mile mountain reciever.,,,,,,,,,,,,,,,,,,,,,,,,,,,,,,,,,,,,,,,,,,,,,,
145.49,-0.6,103.5,WD0EKR,"Canon City, Fremont Peak",CO,OPEN,,,90.24,S,,08,30,38.45420074,-105.29000092,145.49,144.89,103.5,103.5,Fremont,On-Air,Royal Gorge Amateur Radio Club,CCARC,2017-03-11,,,,,,E-power (Bat),Royal Gorge Amateur Radio Club,DM78ik,,,,,,,,Colorado ARES Region 5 District 1,,,,RGARC Net: Wed at 19:00. ARES Net: Wed at 19:30.,,,,,,,,,,,,,,,,,,,,,,,,,,,,,,,,,,,,,,,,,yes,,
223.96,-1.6,103.5,WD0EKR,"Canon City, Fremont Peak",CO,OPEN,,,90.24,S,,08,31,38.45420074,-105.29000092,223.96,222.36,103.5,103.5,Fremont,On-Air,RGARC,CCARC,2017-10-04,,,,,Wide area. Repeater Coverage Map,"E-power (Bat), Remote Base",,DM78IK,,,,,,,,,,,,,,,,,,,,,,,,,,,,,,,,,,,,,,,,,,,,,,,,,,,,,yes,,
447.75,-5,103.5,WD0EKR,"Canon City, Fremont Peak",CO,OPEN,I,,90.24,S,,08,32,38.45420074,-105.29000092,447.75,442.75,103.5,103.5,Fremont,On-Air,RGARC,CCARC,2017-03-11,,,,3081,,E-power (Bat),Royal Gorge Amateur Radio Club,,,,,,,,,,,,,,,,,,,,,,,,,,,,,,,,,,,,,,,,,,,,,,,,,,,,,,yes,,
447.975,-5,100,K0JSC,"Canon City, Colorado",CO,OPEN,EIA,,91.38,S,ON - IDLE,08,7185,38.43009949,-105.23200226,447.975,442.975,100,100,Fremont,On-Air,K0JSC,CCARC,2017-03-11,,,,7301,Canon City area. Repeater Coverage Map,Autopatch.,http://www.k0jsc.com,,363976,28368,,,,,,,,,Full-time to the The Fun Machine System .,Region 2 District 2 ARES Net: Tue at 19:00. EOSS Net: Tue at 20:00. RGARC Net: Wed at 19:00. Region 5 District 1 ARES Net: Wed at 19:30. APRS Net: Sun at 19:00. Region 5 District 2 ARES Net: Sun at 19:30. Statewide ARES Net: Sun at 20:00.,,,,,,,Listen Live,,,,,,,,,,,,,,,,,,,,,,,,,,,,,,,,,,,,
449.9375,-5,CC,K7PFJ,"Cheyenne, South",WY,OPEN,,D,91.45,N,,56,15672,41.06000137,-104.87999725,449.9375,444.9375,,,Laramie,On-Air,,WRCG,2020-03-22,,,,,,,https://www.rmham.org/wordpress/,DN71NB,,,,,,,,,,,Full-time to the Rocky Mountain Ham System .,,yes,7,315603,RMHR c Record retrieved from radioid.net,,,,,,,RMHAM,,,,,,,"Open Talkgroup View Assignment TS TG Access Rocky Mountain Wide 1 700 Northern Colorado Regional 2 721 function myFunction(id) { var x = document.getElementById(id); if (x.className.indexOf(""w3-show"") == -1) { x.className += "" w3-show""; } else { x.className = x.className.replace("" w3-show"", """"); } }",1,,,2,,,,,,,,,,,,,,,,,,,,,
449.9,-5,107.2,N1FSX,Punkin Center,CO,OPEN,,,92.28,SE,,08,7395,38.85200119,-103.69999695,449.9,444.9,107.2,,Lincoln,On-Air,,CCARC,2012-07-20,,,,,,,,DM88DU,,,,,,,,BSAR,,,,,,,,,,,,,,,,,,,,,,,,,,,,,,,,,,,,,,,,,,,,,,,
447,-5,103.5,KC0VJD,Hugo,CO,OPEN,W,Y,93.49,SE,,08,17059,39.05419922,-103.48000336,447,442,,,Lincoln,On-Air,Delbert Noakes (KC0VJD),CCARC,2020-01-26,,,,,"I-70, US-71, US-287, US-40, US-24, Hugo, Limon, Genoa, Punkin Center, Arriba.",APRS repeater &amp; I-Gate / Weather station,,,,,,,,yes,Open ↑ / Open ↓,,,30534,,,,,,,,,,,,,,,,,,,,,,,,,,,,,,,,,,,,,,,,,,,,,
224.26,-1.6,88.5,ND0Q,"Pueblo, Baculite Mesa",CO,OPEN,,,95.94,SSE,,08,195,38.39250183,-104.55500031,224.26,222.66,88.5,,Pueblo,On-Air,Pueblo Ham Club,CCARC,2013-05-07,,,,,Wide area.,E-power.,PHC repeaters,,,,,,,,,,,,,,,,,,,,,,,,,,,,,,,,,,,,,,,,,,,,,,,,,,,,,,,,
146.745,-0.6,100,W0LSD,Nathrop,CO,OPEN,,,96.04,SW,,08,184,38.71289825,-106.19999695,146.745,146.145,100,,Chaffee,On-Air,CLARA,CCARC,2019-07-21,,,,,,E-power.,,,,,,,,,,,,,,,,,,,,,,,,,,,,,,,,,,,,,,,,,,,,,,,,,,,,,,,,,
146.775,-0.6,114.8,KC7SNO,"Cheyenne, Denver Hill",WY,OPEN,,,96.1,N,,56,27,41.12390137,-104.81900024,146.775,146.175,114.8,,Laramie,On-Air,Shy-Wy Amateur Radio Club,WRCG,2017-01-04,,,,,,"E-power, WX.",,,,,,,,,,,,,"Full-time to 147.16500 (KC7SNO) at Albin, WY .",Weather Net: Daily at 06:45. Shy-WY ARC: Sun at 07:00.,,,,,,,,,,,,,,,,,,,,,,,,,,,,,,,,,,,,,,,,,,,
145.16,-0.6,88.5,KB0VJJ,"Walden, Peterson Ridge",CO,OPEN,,,96.71,NW,,08,244,40.6493988,-106.38200378,145.16,144.56,88.5,123,Jackson,On-Air,Colorado Connection,CCARC,2017-01-06,,,,,"North Park, along with portions of I-80 from Laramie, Wyoming, to Rock Springs, Wyoming.",8,,,,,,,,,,,Part of the Colorado Connection system of repeaters.,,Full-time to the Colorado Connection System .,Central Colorado Traffic Net: Daily at 19:30. Colorado Connection Net (all welcome): Thu at 20:00. Statewide ARES: Sun at 20:00.,,,,,,,,,,,,,,,,,,,,,,,,,,,,,,,,,,,,,,,,,,,
145.235,-0.6,131.8,KB7SWR,Cheyenne,WY,OPEN,,,97.2,N,,56,19,41.13999939,-104.81999969,145.235,144.635,131.8,,Laramie,Off-Air,N7GT,WRCG,2020-05-23,,,,,Local: Cheyenne.,,,,,,,,,,,,25,,"Full-time to 448.15000 (KB7SWR) at Cheyenne, WY .",,,,,,,,,,,,,,,,,,,,,,,,,,,,,,,,,,,,,,,,,,,,
147.105,0.6,91.5,KC7SNO,"Cheyenne, North Park",WY,OPEN,,,97.2,N,,56,26,41.13999939,-104.81999969,147.105,147.705,91.5,91.5,Laramie,On-Air,ShyWyArc,WRCG,2019-02-15,,,,,,,,DN71,,,,,,,,,,,,,,,,,,,,,,,,,,,,,,,,,,,,,,,,,,,,,,,,,,,,,,,
449.975,-5,CC,WY7EOC,Cheyenne,WY,OPEN,,D,97.2,N,,56,10803,41.13999939,-104.81999969,449.975,444.975,,,Laramie,On-Air,WY7EOC,WRCG,2020-02-27,,,,,,,,,,,,,,,,Laramie County Emergency Management/WY7EOC,See the website for TG/TS/CC programming info and link status/info,,,,yes,11,315601,WyDMR c Record retrieved from radioid.net,,,,,,,Wyoming DMR Project,,,,,,,,,,,,,,,,,,,,,,,,,,,,,,,,
146.79,-0.6,88.5,W0PHC,"Pueblo, Baculite Mesa",CO,OPEN,,,97.89,SSE,,08,193,38.36240005,-104.55999756,146.79,146.19,88.5,,Pueblo,On-Air,Pueblo Amateur Radio Club,CCARC,2019-12-10,,,,,Wide area.,E-power.,Pueblo Amateur Radio Club,DM78ri,,,,,,,,,,,,,,,,,,,,,,,,,,,,,,,,,,,,,,,,,,,,,,,,,,,,,,,
447.95,-5,CC 88.5,W0PHC,Pueblo,CO,OPEN,,D,97.89,SSE,,08,198,38.36240005,-104.55999756,447.95,442.95,88.5,,Pueblo,On-Air,Pueblo Amateur Radio Club,CCARC,2019-12-10,,,,,Wide area.,E-power.,Pueblo Amateur Radio Club,DM78ri,,,,Yes; analog capable.,,,,,Dual Mode Analog/DMR,,,,yes,0,,c Record retrieved from radioid.net,,,,,,,,,,,,,,,,,,,,,,,,,,,,,,,,,,,,,,,
448.95,-5,CC,KC7DHF,"Cheyenne, Old airport control tower",WY,OPEN,,D,98.11,N,"Cheyenne DMR Repeater. Please use ONLY TG 315615(Cheyenne Local), TG 31563 (Wy Svr Wx), and TG 31562 (Wyoming TAC 2) on Time Slot 2 (TS2). TG 3156 (Wyoming), TG 31560 (SE Wyoming ) and TG 31561 (Wyoming TAC 1) are on TS1. ALL OTHER TG connections will be directed to Time Slot 1 (TS1). Example of ALL OTHERS is any calls that are to a TG outside of Wyoming. Under special situations such as emergencies or special events TS2 may be used for TGs outside of Wyoming but those will be after repeater Admin approval.",56,8991,41.15299988,-104.81800079,448.95,443.95,,,Laramie,On-Air,,WRCG,2019-12-12,,,,,Local,,,DN71OD,,,,,,,,,Brandmiester DMR only no analog.,,,,yes,15,315615,Brandmeister c Record retrieved from radioid.net,BrandMeister,,,,,,Brandmeister,,,,,,,,,,,,,,,,,,,,,,,,,,,,,,,,
