Frequency,Offset,Tone,Call,Location,ST/PR,Use,VOIP,DGTL,Mi,Dir,,state_id,ID,Latitude,Longitude,Downlink,Uplink,Uplink Tone,Downlink Tone,County,Grid,Op Status,Sponsor,Affiliate,Links,Coordination,Last update,On-air,Features,Coverage,EchoLink,Web links,Notes,Nets,DMR Enabled,Color Code,DMR ID,IPSC Network,Wide Network,IRLP,AllStar,Commands,D-STAR Enabled,Node,Sources,Talkgroup Network,Talkgroups,Southern Colorado,Central Regional,Northern Colorado Regional,YSF Digital Enabled,DG-ID,Mixed-Mode,Local Network,Wyoming,WyLOCAL,Worldwide,North America,English,Local/Cluster,Mountain Reg USA,Rocky Mountain Wide,Feed,Location Photo,P-25 Digital Enabled,NAC,Default Reflector,RX Location,Gunbarrel,Lousville,Lyons,Louisville #2,Worldwide English,DCI Bridge,Colorado,N. Colorado,TAC 310,Devilshead Local,WIRES-X,Bandwidth,Eastern Colorado,NXDN Enabled,RAN,NXDN Bandwidth,NXDN Network,TAC 311,Colorado Chat,Data,DMRX 1,Utah Statewide 2,USA,Utah,PA (PA-525),Hytera USA,SNARS,Parrott,Audio Test,All TG's Off,All TG's On
146.97,-0.6,88.5,KB0VJJ,Craig,CO,OPEN,,,38.26,NNE,,08,15577,40.51520157,-107.54599762,146.97,146.37,88.5,123,Moffat,DN60FM,On-Air,Northwest Colorado Amateur Radio Association,Colorado Connection,Full-time to the Colorado Connection System .,CCARC,2017-01-06,,,,,,,,,,,,,,,,,,,,,,,,,,,,,,,,,,,,,,,,,,,,,,,,,,,,,,,,,,,,,,,,,,,,,,,,
145.265,-0.6,107.2,WD0HAM,Craig,CO,OPEN,,,38.26,NNE,,08,3740,40.51520157,-107.54599762,145.265,144.665,107.2,,Moffat,,,NW Colorado ARC,,,CCARC,2012-11-12,Unknown,E-power.,,,,,,,,,,,,,,,,,,,,,,,,,,,,,,,,,,,,,,,,,,,,,,,,,,,,,,,,,,,,,,,,,,,,,,
146.76,-0.6,107.2,N0SWE,Rifle,CO,OPEN,E,,39.62,S,Node Offline,08,200,39.47449875,-107.77200317,146.76,146.16,107.2,,Garfield,DM69cl,Off-Air,"N0SWE, Roaring Fork Amateur Repeater Cooperative",,,CCARC,2015-06-03,,E-power.,"New Castle, Silt, Rifle and Rulison and areas around Parachute.",243117,,,,,,,,,,,,,,,,,,,,,,,,,,,,,,,,,,,,,,,,,,,,,,,,,,,,,,,,,,,,,,,,,,,,
449.8,-5,107.2,WA4HND,"Parachute, Mount Callahan",CO,OPEN,,,41.13,S,,08,253,39.45190048,-108.05200195,449.8,444.8,107.2,,Garfield,,On-Air,,,,CCARC,2018-01-15,,8,,,GMRA Repeaters,,,,,,,,,,,,,,,,,,,,,,,,,,,,,,,,,,,,,,,,,,,,,,,,,,,,,,,,,,,,,,,,,,,
224.02,-1.6,,KI0G,Glenwood Springs,CO,CLOSED,,,45.9,SE,,08,8181,39.55049896,-107.32499695,224.02,222.42,,,Garfield,,,SCARC,,,CCARC,2012-11-12,Unknown,,,,,,,,,,,,,,,,,,,,,,,,,,,,,,,,,,,,,,,,,,,,,,,,,,,,,,,,,,,,,,,,,,,,,,,
447.6,-5,,KI0G,Glenwood Springs,CO,CLOSED,,,45.9,SE,,08,8192,39.55049896,-107.32499695,447.6,442.6,,,Garfield,,,Ski Country ARC (SCARC),,"Full-time to 146.88000 (KI0G) at Glenwood Springs, Sunlight Peak, CO .",CCARC,2012-11-12,Unknown,50,40,,,Link Hub for 146.880.,,,,,,,,,,,,,,,,,,,,,,,,,,,,,,,,,,,,,,,,,,,,,,,,,,,,,,,,,,,,,,,,,,
449.85,-5,131.8,WA4HND,"Glenwood Springs, Lookout Mountain",CO,OPEN,,,45.9,SE,,08,13637,39.55049896,-107.32499695,449.85,444.85,131.8,131.8,Garfield,,On-Air,,Grand Mesa Repeater Assoc,Full-time to the GMRA Open System .,CCARC,2018-01-15,,e-power Linked to GMRA Open System,Glenwood Springs,,http://GMRA.org,RACES net Wed 1930 Hrs Local,Colorado State RACES Wed 1930 local,,,,,,,,,,,,,,,,,,,,,,,,,,,,,,,,,,,,,,,,,,,,,,,,,,,,,,,,,,,,,,,,,
147.3,0.6,107.2,K0VQ,"Glenwood Springs, Three Mile Ridge",CO,OPEN,E,,45.93,SE,Node Offline,08,131,39.55059814,-107.3239975,147.3,147.9,107.2,,Garfield,,Off-Air,Roaring Fork Amateur Repeater Cooperative,,,CCARC,2012-11-10,,8,"Wide area: Glenwood Springs, Glenwood Canyon, South Canyon, Carbondale and surrounding areas.",266359,,Single beep courtesy tone when linked and none when unlinked.,,,,,,,,,,,,,,,,,,,,,,,,,,,,,,,,,,,,,,,,,,,,,,,,,,,,,,,,,,,,,,,,,,
445.2625,-5,CC,N0SZ,"Rangely, Cathedral Bluffs",CO,OPEN,,D,47.3,W,,08,17249,40.08750153,-108.80500031,445.2625,440.2625,,,Rio Blanco,,On-Air,RMHAM,,,,2019-11-27,,,,,https://www.rmham.org,,,yes,7,310154,RMHAM c Record retrieved from radioid.net,,,,,,,,,,,,,,,,,,,,,,,,,,,,,,,,,,,,,,,,,,,,,,,,,,,,,,,,,,,,,
146.85,-0.6,88.5,KB0VJJ,"Glenwood Springs, Sunlight Peak",CO,OPEN,,,50.84,SE,,08,129,39.42639923,-107.37999725,146.85,146.25,88.5,123,Garfield,DM69HK,On-Air,Colorado Connection,,,CCARC,2016-05-23,,70,"Wide area: Throughout the Roaring Fork Valley, Glenwood Canyon, East and West on I-70, and the Flattops Wilderness north of Glenwood.",,,Part of the Colorado Connection System of Repeaters,Daily 7:30PM Local Time Central Colorado Traffic Net Thursdays 8:00PM Colorado Connection Net All Welcome Sundays 8:00PM Statewide ARES net,,,,,,,,,,,,,,,,,,,,,,,,,,,,,,,,,,,,,,,,,,,,,,,,,,,,,,,,,,,,,,,,,
146.88,-0.6,107.2,KI0G,"Glenwood Springs, Sunlight Peak",CO,OPEN,,,50.84,SE,,08,130,39.42639923,-107.37999725,146.88,146.28,107.2,,Garfield,,On-Air,Ski Country ARC,,"Full-time to 447.60000 (KI0G) at Glenwood Springs, CO .",CCARC,2012-11-10,,,,,,,,,,,,,,,,,,,,,,,,,,,,,,,,,,,,,,,,,,,,,,,,,,,,,,,,,,,,,,,,,,,,,,,,
447.1,-5,107.2,KI0G,"Glenwood Springs, Sunlight Peak",CO,OPEN,,,50.84,SE,,08,132,39.42639923,-107.37999725,447.1,442.1,107.2,,Garfield,,On-Air,Ski Country ARC,,,CCARC,2012-11-10,,,,,,,,,,,,,,,,,,,,,,,,,,,,,,,,,,,,,,,,,,,,,,,,,,,,,,,,,,,,,,,,,,,,,,,,
449.6,-5,107.2,N0XLI,"Glenwood Springs, Sunlight Peak",CO,OPEN,,,50.84,SE,,08,255,39.42639923,-107.37999725,449.6,444.6,107.2,,Garfield,,On-Air,,,,CCARC,2018-01-15,,e-power Linked to GMRA open system,Wide area.,,http://www.gmra.org,,,,,,,,,,,,,,,,,,,,,,,,,,,,,,,,,,,,,,,,,,,,,,,,,,,,,,,,,,,,,,,,,,,
449.725,-5,179.9,K0ELK,"Carbondale, Four Mile Ridge",CO,OPEN,IA,,54.32,SE,,08,35,39.40000153,-107.31500244,449.725,444.725,179.9,,Garfield,,On-Air,Roaring Fork Amateur Repeater Cooperative (RFARC),,,CCARC,2012-11-10,,EchoLink.,Wide area.,,,,,,,,,,3722,28434,,,,,,,,,,,,,,,,,,,,,,,,,,,,,,,,,,,,,,,,,,,,,,,,,,,,,,,,,,
147.39,0.6,107.2,K0SNO,"Carbondale, Four Mile Ridge",CO,OPEN,,,54.32,SE,,08,259,39.40000153,-107.31500244,147.39,147.99,107.2,,Garfield,,On-Air,Roaring Fork Amateur Repeater Cooperative,,,,2016-07-14,,,"Rifle, Carbondale, El Jebel, Glenwood Springs, Basalt and Aspen.",,,,,,,,,,,,,,,,,,,,,,,,,,,,,,,,,,,,,,,,,,,,,,,,,,,,,,,,,,,,,,,,,,,,,
449.5,-5,107.2,KB0SW,Collbran,CO,OPEN,,,55.12,S,,08,36,39.24060059,-107.96099854,449.5,444.5,107.2,,Mesa,,Off-Air,Grand Mesa Repeater Association (GMRA),,,CCARC,2016-07-01,,E-power.,,,,,,,,,,,,,,,,,,,,,,,,,,,,,,,,,,,,,,,,,,,,,,,,,,,,,,,,,,,,,,,,,,,,,,
447.15,-5,136.5,K0VQ,"Carbondale, Missouri Heights",CO,OPEN,E,,60.61,SE,Node Offline,08,6009,39.42470169,-107.09700012,447.15,442.15,136.5,,Garfield,DM69KK,On-Air,,,,,2011-08-01,,,,8150,,"Please contact Tracy, K0VQ, by email or on-the-air prior to attempting to use this node to obtain codes for specific questions and to make sure that proper protocol is followed. Please DO NOT just key up and start issuing DTMF codes, connecting to reflectors, etc., without guidance.",,,,,,,,,,,,,,,,,,,,,,,,,,,,,,,,,,,,,,,,,,,,,,,,,,,,,,,,,,,,,,,,,,
447,-5,107.2,KB0SW,"Loma, Baxter Pass",CO,OPEN,,,63.5,WSW,,08,174,39.58190155,-108.95200348,447,442,107.2,,Garfield,,On-Air,,,,CCARC,2020-02-09,,8,Wide area.,,,,,,,,,,,,,,,,,,,,,,,,,,,,,,,,,,,,,,,,,,,,,,,,,,,,,,,,,,,,,,,,,,,,,
147.165,0.6,88.5,KB0VJJ,Steamboat Springs,CO,OPEN,,,64.85,E,,08,15579,40.48500061,-106.83200073,147.165,147.765,88.5,123,Routt,,On-Air,Colorado Connection,,Full-time to the Colorado Connection System .,,2017-01-06,,,,,,,,,,,,,,,,,,,,,,,,,,,,,,,,,,,,,,,,,,,,,,,,,,,,,,,,,,,,,,,,,,,,,,,,
449.625,-5,123,KB0VJJ,Steamboat Springs,CO,OPEN,,,64.85,E,,08,9770,40.48500061,-106.83200073,449.625,444.625,123,123,Routt,,On-Air,"Colorado Connection Repeaters, Inc.",,,,2019-05-11,,Statewide Linked System,Local Steamboat Area,,http://colcon.org,,Central Colorado Traffic Net: Daily at 19:30. Colorado Connection Net: Thu at 20:00 (All welcome). Statewide ARES Net: Sundays at 20:00.,,,,,,,,,,,,,,,,,,,,,,,,,,,,,,,,,,,,,,,,,,,,,,,,,,,,,,,,,,,,,,,,,
147.21,0.6,107.2,KD0H,Steamboat Springs,CO,OPEN,,,64.89,E,,08,237,40.48500061,-106.83100128,147.21,147.81,107.2,107.2,Routt,,On-Air,SSARC,,,CCARC,2014-09-27,,"Linked, WX.",,,,,,,,,,,,,,,,,,,,,,,,,,,,,,,,,,,,,,,,,,,,,,,,,,,,,,,,,,,,,,,,,,,,,,
145.355,-0.6,88.5,KB0VJJ,"Grand Junction, Grand Mesa",CO,OPEN,,,67.09,S,,08,149,39.06669998,-107.93599701,145.355,144.755,88.5,123,Mesa,,On-Air,Colorado Connection,,Full-time to the Colorado Connection System .,CCARC,2017-01-06,,E-power.,"Rifle to the east, several miles east of Green River, Utah to the west.",,,Colorado Connection system of repeaters,Central Colorado Traffic Net: Daily at 19:30. Colorado Connection Net (all welcome): Thu at 20:00. Statewide ARES: Sun at 20:00.,,,,,,,,,,,,,,,,,,,,,,,,,,,,,,,,,,,,,,,,,,,,,,,,,,,,,,,,,,,,,,,,,
449.65,-5,151.4,KB0YNA,"Grand Junction, Grand Mesa",CO,OPEN,I,,67.1,S,,08,8763,39.0666008,-107.93699646,449.65,444.65,151.4,151.4,Mesa,,On-Air,Keri Washburn,,"Full-time to 447.65000 (KB0YNA) at Gunnison, W Mountain or Tenderfoot Mountain, CO .",CCARC,2016-10-28,,NWS weather alert system.,Wide area coverage,,,,,,,,,,8162,,11,,,,,,,,,,,,,,,,,,,,,,,,,,,,,,,,,,,,,,,,,,,,,,,,,,,,,,,,,
446.9125,-5,CC,W0BX,"Grand Junction, Grand Mesa",CO,OPEN,,D,67.65,SSW,"DMR repeater at 10,023' AMSL. Users are welcome to link to any Brandmeister talk group. Use TS1 to link to 310, 3100 or other high traffic talk groups. TS2 is used for linking to low traffic talk groups and for local calls. Unlink with a private call to 4000. Links will time out after 15 minutes of no local RF activity. Please experiment and have fun! 73 w0bx.",08,16721,39.08890152,-108.22699738,446.9125,441.9125,,,Mesa,,On-Air,Bill Frost,,,,2019-11-27,,,"Grand Junction, I70",,,Brandmeister network,,yes,1,310868,Brandmeister c Record retrieved from radioid.net,,,,,,,,,,,,,,,,,,,,,,,,,,,,,,,,,,,,,,,,,,,,,,,,,,,,,,,,,,,,,
449.7,-5,136.5,W7BYU,Vernal,UT,OPEN,,,68.71,WNW,,49,182,40.35639954,-109.14600372,449.7,444.7,136.5,,Uintah,DN50KI,,W7BYU,,,UVHFS,,Unknown,8,"Vernal, Roosevelt, Duchesne and other Uintah basin communities.",,,,,,,,,,,,,,,,,,,,,,,,,,,,,,,,,,,,,,,,,,,,,,,,,,,,,,,,,,,,,,,,,,,,,
147.1,0.6,136.5,W7BAR,"Vernal, Blue Mountain",UT,OPEN,EI,,68.77,WNW,ON - In Conference IRLP 9257,49,163,40.35720062,-109.14700317,147.1,147.7,136.5,,Uintah,DN50KI,On-Air,""">Borderline ARC",,"Full-time to 147.34000 (KG7DSO) at Vernal, Tabby Mountain, UT .",UVHFS,2017-06-29,,"Autopatch, e-power.","Wide area: Vernal, Roosevelt, Duchesne and other Uintah basin communities.",458414,,8,,,,,,,3577,,"IRLP: No access code, bring up your node by it's node no. and bring it down with a 73.",,,,,,,,,,,,,,,,,,,,,,,,,,,,,,,,,,,,,,,,,,,,,,,,,,,,,,,,,
146.92,-0.6,136.5,W7BYU,Roosevelt,UT,OPEN,E,,68.77,WNW,Node Offline,49,281,40.35499954,-109.14800262,146.92,146.32,136.5,,Duchesne,DN50KI,Off-Air,,,,UVHFS,2017-06-29,,E-power.,"Vernal, Roosevelt, Duchesne and other Uintah basin communities.",458695,,,,,,,,,,,,,,,,,,,,,,,,,,,,,,,,,,,,,,,,,,,,,,,,,,,,,,,,,,,,,,,,,,,,
449.3,-5,107.2,WA4HND,"Grand Junction, Grand Mesa",CO,OPEN,I,,70.35,SSW,,08,154,39.05390167,-108.2539978,449.3,444.3,107.2,107.2,Mesa,,On-Air,,,,CCARC,2018-01-16,,e-power Linked to GMRA Open System,Wide Area I-70 West Rifle to Western Utah,,http://www.gmra.org/,Closed IRLP out,RACES Wed 1930 hrs,,,,,,3710,,,,,,,,,,,,,,,,,,,,,,,,,,,,,,,,,,,,,,,,,,,,,,,,,,,,,,,,,,,
145.175,-0.6,107.2,W0RRZ,"Grand Junction, GJT",CO,OPEN,I,,71.38,SSW,,08,147,39.11729813,-108.52200317,145.175,144.575,107.2,,Mesa,DM59RC,On-Air,,,,CCARC,2016-05-11,,"E-power,",Greater grand Junction area.,,,,,,,,,,3161,,Standard IRLP node commands.,,,,,,,,,,,,,,,,,,,,,,,,,,,,,,,,,,,,,,,,,,,,,,,,,,,,,,,,,
447.35,-5,107.2,,"Cedaredge, Grand Mesa",CO,OPEN,,,72.15,S,,08,3755,38.99440002,-107.97299957,447.35,442.35,107.2,,Delta,,,Grand Mesa Repeater Assoc (GMRA),,,CCARC,2012-11-10,Unknown,,,,GMRA Repeaters,,,,,,,,,,,,,,,,,,,,,,,,,,,,,,,,,,,,,,,,,,,,,,,,,,,,,,,,,,,,,,,,,,,
147.39,0.6,107.2,KE0TY,Grand Junction,CO,OPEN,,,75.35,SSW,,08,152,39.06389999,-108.55000305,147.39,147.99,107.2,,Mesa,,,KE0TY,,,CCARC,2012-11-10,Unknown,Linked.,,,,,,,,,,,,,,,,,,,,,,,,,,,,,,,,,,,,,,,,,,,,,,,,,,,,,,,,,,,,,,,,,,,,,,
146.82,-0.6,107.2,W0GJT,"Grand Junction, 9 Mile, Hwy 141, Unaweep",CO,OPEN,A,,75.35,SSW,,08,261,39.06389999,-108.55000305,146.82,146.22,107.2,,Mesa,,On-Air,,,,CCARC,2019-02-12,,,Wide area: North Western Colorado - South to Montrose and East on I-70.,,,,,,,,,,,43554,Enter *83 node# to link. *81 Unlink,,,,,,,,,,,,,,,,,,,,,,,,,,,,,,,,,,,,,,,,,,,,,,,,,,,,,,,,,
147.105,0.6,,K0SSI,Grand Junction,CO,OPEN,,,75.37,SSW,,08,8175,39.06389999,-108.5510025,147.105,147.705,,,Mesa,DM59RB,On-Air,K0SSI,,,CCARC,2013-04-20,,,,,,,,,,,,,,,,,,,,,,,,,,,,,,,,,,,,,,,,,,,,,,,,,,,,,,,,,,,,,,,,,,,,,,,,
449,-5,,KB0SW,Grand Junction,CO,CLOSED,,,75.37,SSW,,08,8206,39.06389999,-108.5510025,449,444,,107.2,Mesa,,On-Air,KB0SW,Grand Mesa Repeater Assoc,,CCARC,2015-08-03,,,,,,,,,,,,,,,,,,,,,,,,,,,,,,,,,,,,,,,,,,,,,,,,,,,,,,,,,,,,,,,,,,,,,,,,
446.775,-5,,KD0RED,Grand Junction,CO,OPEN,,S,75.37,SSW,,08,11792,39.06389999,-108.5510025,446.775,441.775,,,Mesa,,On-Air,,,,,2014-08-16,,,,,,,,,,,,,,,,yes,KD0RED (B) Gateway Repeater,jfindu lookup / dstar-users lookup,,,,,,,,,,,,,,,,,,,,,,,,,,,,,,,,,,,,,,,,,,,,,,,,,,,,,,
449.775,-5,173.8,KD0SMZ,Grand Junction,CO,OPEN,EI,,75.37,SSW,ON - IDLE,08,11793,39.06389999,-108.5510025,449.775,444.775,173.8,88.5,Mesa,,On-Air,,,,CCARC,2015-10-25,,,,7572,,,,,,,,,7573,,,,,,,,,,,,,,,,,,,,,,,,,,,,,,,,,,,,,,,,,,,,,,,,,,,,,,,,,,,
145.22,-0.6,107.2,KE0TY,Grand Junction,CO,OPEN,,,75.37,SSW,,08,8167,39.06389999,-108.5510025,145.22,144.62,107.2,,Mesa,,,KE0TY,,,CCARC,2012-11-12,Unknown,,,,,,,,,,,,,,,,,,,,,,,,,,,,,,,,,,,,,,,,,,,,,,,,,,,,,,,,,,,,,,,,,,,,,,,
447.5,-5,114.8,KC0ARV,Grand Junction,CO,OPEN,,,75.38,SSW,,08,3757,39.06380081,-108.5510025,447.5,442.5,114.8,,Mesa,,,KC0ARV,,,CCARC,2012-11-10,Unknown,,,,,,,,,,,,,,,,,,,,,,,,,,,,,,,,,,,,,,,,,,,,,,,,,,,,,,,,,,,,,,,,,,,,,,,
147.355,-0.6,88.5,KB0VJJ,"Grand Junction, Grand Mesa",CO,OPEN,,,76.45,SSW,,08,15581,39.05199814,-108.56500244,147.355,146.755,88.5,123,Mesa,,On-Air,Colorado Connection,,Full-time to the Colorado Connection System .,CCARC,2017-01-06,,,,,,,,,,,,,,,,,,,,,,,,,,,,,,,,,,,,,,,,,,,,,,,,,,,,,,,,,,,,,,,,,,,,,,,,
146.67,-0.6,107.2,K0CL,Snowmass Village,CO,OPEN,,,77.09,SE,,08,211,39.21310043,-106.93699646,146.67,146.07,107.2,,Pitkin,,On-Air,Ski Country ARC,,,CCARC,2012-11-10,,Linked.,Wide area.,,,,,,,,,,,,,,,,,,,,,,,,,,,,,,,,,,,,,,,,,,,,,,,,,,,,,,,,,,,,,,,,,,,,,
449.9,-5,136.5,W7BAR,"Vernal, Uintah County EOC",UT,OPEN,I,,77.61,W,,49,13408,40.10689926,-109.37799835,449.9,444.9,136.5,,Uintah,,,Borderline Amateur Radio Club,,,,2015-07-04,Unknown,,"Vernal, Roosevelt, Duchesne and other Uintah basin communities.",,,,,,,,,,7705,,,,,,,,,,,,,,,,,,,,,,,,,,,,,,,,,,,,,,,,,,,,,,,,,,,,,,,,,,,
147.195,0.6,107.2,KC0QXX,"Cedaredge, Cedar Mesa",CO,OPEN,,,78.49,S,,08,3745,38.90159988,-107.9260025,147.195,147.795,107.2,,Delta,,,,Colorado District 25 ARES,,,2018-04-04,Unknown,,Local.,,,,,,,,,,,,,,,,,,,,,,,,,,,,,,,,,,,,,,,,,,,,,,,,,,,,,,,,,,,,,,,,,,,,,
147.36,0.6,100,W0ALC,Cedaredge,CO,OPEN,,,78.49,S,,08,3749,38.90159988,-107.9260025,147.36,147.96,100,,Delta,,On-Air,W0ALC,,,CCARC,2019-08-26,,,,,,,,,,,,,,,,,,,,,,,,,,,,,,,,,,,,,,,,,,,,,,,,,,,,,,,,,,,,,,,,,,,,,,,,
449.825,-5,100,W0ALC,Cedaredge,CO,OPEN,,,78.49,S,,08,3760,38.90159988,-107.9260025,449.825,444.825,100,,Delta,,,W0ALC,,,CCARC,2018-04-04,Unknown,,,,,,,,,,,,,,,,,,,,,,,,,,,,,,,,,,,,,,,,,,,,,,,,,,,,,,,,,,,,,,,,,,,,,,,
146.94,-0.6,107.2,W0RRZ,"Grand Junction, Black Ridge (Above Colorado Ntl Monument)",CO,OPEN,,,80.55,SW,,08,151,39.06560135,-108.7480011,146.94,146.34,107.2,107.2,Mesa,DM59PB,On-Air,Western Colorado Amateur Radio Club,,,CCARC,2016-05-11,,E-power and autopatch for WCARC members,Grand Junction 30-50 mi,,http://w0rrz.org,,Oatmeal Net: Mon-Fri at 7:30AM-8:00AM,,,,,,,,,,,,,,,,,,,,,,,,,,,,,,,,,,,,,,,,,,,,,,,,,,,,,,,,,,,,,,,,,
449.575,-5,131.8,WA4HND,"Grand Junction, Black Ridge",CO,OPEN,I,,80.55,SW,,08,155,39.06560135,-108.7480011,449.575,444.575,131.8,131.8,Mesa,DM59PB,On-Air,,Grand Mesa Repeater Assoc,,CCARC,2018-01-15,,e-power. Linked to GMRA Open System,Grand Junction,,GMRA Repeaters,Closed IRLP out,Wed RACES Net 1930 Hrs,,,,,,3710,,,,,,,,,,,,,,,,,,,,,,,,,,,,,,,,,,,,,,,,,,,,,,,,,,,,,,,,,,,
147.075,0.6,88.5,KB0VJJ,"Kremmling, Santoy Peak",CO,OPEN,,,80.68,ESE,,08,166,40.05889893,-106.38800049,147.075,147.675,88.5,123,Grand,,On-Air,Colorado Connection,,Full-time to the Colorado Connection System .,CCARC,2016-05-23,,,Flattops Wilderness Area well and can even be worked from the Front Range in some locations. Coverage at the east end of Glenwood Canyon to Eagle is available in some spots along I-70. Map,,,Part of the Colorado Connection system of Repeaters,Colorado Traffic Net: Daily at 19:30. Colorado Connection Net (all welcome): Thu at 20:00. Statewide ARES: Sun at 20:00.,,,,,,,,,,,,,,,,,,,,,,,,,,,,,,,,,,,,,,,,,,,,,,,,,,,,,,,,,,,,,,,,,
147.345,0.6,88.5,KB0VJJ,Vail,CO,OPEN,,,81.63,SE,,08,241,39.65539932,-106.45700073,147.345,147.945,88.5,123,Eagle,,On-Air,Colorado Connection,,Full-time to the Colorado Connection System .,CCARC,2017-01-06,,9,Wide area: Vail Pass to Glenwood Canyon and the Flattops Wilderness to Tennessee Pass. Map,,,,Central Colorado Traffic Net: Daily at 19:3030 Colorado Connection Net (All Welcome): Thu at 20:00. Statewide ARES net: Sun at 20:00.,,,,,,,,,,,,,,,,,,,,,,,,,,,,,,,,,,,,,,,,,,,,,,,,,,,,,,,,,,,,,,,,,
147.33,0.6,107.2,KI0MR,Paonia,CO,OPEN,,,82.58,SSE,,08,8179,38.86830139,-107.59200287,147.33,147.93,107.2,,Delta,,On-Air,North Fork Repeater Assoc.,,,CCARC,2016-05-16,,,Wide area.,,,,,,,,,,,,,,,,,,,,,,,,,,,,,,,,,,,,,,,,,,,,,,,,,,,,,,,,,,,,,,,,,,,,,
445.075,-5,CC,N0SZ,Vail,CO,OPEN,,D,82.61,SE,,08,16781,39.63479996,-106.4469986,445.075,440.075,,,Eagle,DM69SP,On-Air,K2AD,Rocky Mountain Ham Radio,,CCARC,2019-11-27,,,,,http://www.rmham.org/,,,yes,7,310851,RMHR c Record retrieved from radioid.net,,,,,,,,,,,,,,,,,,,,,,,,,,,,,,,,,,,,,,,,,,,,,,,,,,,,,,,,,,,,,
447.05,-5,136.5,K0VQ,"Aspen, Aspen Mountain",CO,OPEN,,,82.9,SE,,08,260,39.17610168,-106.82900238,447.05,442.05,136.5,136.5,Pitkin,,On-Air,Roaring Fork Amateur Repeater Cooperative,,,CCARC,2012-11-10,,,Aspen-Snowmass areas.,,,,,,,,,,,,,,,,,,,,,,,,,,,,,,,,,,,,,,,,,,,,,,,,,,,,,,,,,,,,,,,,,,,,,
448.15,-5,100,W0GJT,Grand Junction,CO,OPEN,EI,,84.59,SSW,Node Offline,08,153,38.89899826,-108.4960022,448.15,443.15,100,,Mesa,DM58SV,On-Air,,,,CCARC,2016-04-22,,,,312189,,,,,,,,,7963,,,,,,,,,,,,,,,,,,,,,,,,,,,,,,,,,,,,,,,,,,,,,,,,,,,,,,,,,,,
449.2,-5,107.2,,Glade Park,CO,OPEN,,,85.34,SSW,,08,18392,38.97999954,-108.73999786,449.2,444.2,107.2,,Mesa,,On-Air,GMRA,,,,2019-12-22,,Solar Powered,,,http://www.gmra.org/repeaters.html,,,,,,,,,,,,,,,,,,,,,,,,,,,,,,,,,,,,,,,,,,,,,,,,,,,,,,,,,,,,,,,,,,,
224.8,-1.6,,N0AFO,Vail,CO,OPEN,,,86.14,SE,,08,242,39.64030075,-106.37400055,224.8,223.2,,,Eagle,,Off-Air,ECHO,,,CCARC,2018-06-02,,,,,,,,,,,,,,,,,,,,,,,,,,,,,,,,,,,,,,,,,,,,,,,,,,,,,,,,,,,,,,,,,,,,,,,,
449.9,-5,107.2,N0AFO,Vail,CO,OPEN,,,86.14,SE,,08,243,39.64030075,-106.37400055,449.9,444.9,107.2,107.2,Eagle,,Off-Air,ECHO,,,CCARC,,,,,,,,,,,,,,,,,,,,,,,,,,,,,,,,,,,,,,,,,,,,,,,,,,,,,,,,,,,,,,,,,,,,,,,,,
146.61,-0.6,107.2,K0RV,"Vail, Bald Mountain",CO,OPEN,,,87.84,SE,,08,256,39.60609818,-106.35600281,146.61,146.01,107.2,,Eagle,,On-Air,ECHO,,,CCARC,2012-11-10,,11,,,,,,,,,,,,,,,,,,,,,,,,,,,,,,,,,,,,,,,,,,,,,,,,,,,,,,,,,,,,,,,,,,,,,,
145.16,-0.6,88.5,KB0VJJ,"Walden, Peterson Ridge",CO,OPEN,,,91.04,E,,08,244,40.6493988,-106.38200378,145.16,144.56,88.5,123,Jackson,,On-Air,Colorado Connection,,Full-time to the Colorado Connection System .,CCARC,2017-01-06,,8,"North Park, along with portions of I-80 from Laramie, Wyoming, to Rock Springs, Wyoming.",,,Part of the Colorado Connection system of repeaters.,Central Colorado Traffic Net: Daily at 19:30. Colorado Connection Net (all welcome): Thu at 20:00. Statewide ARES: Sun at 20:00.,,,,,,,,,,,,,,,,,,,,,,,,,,,,,,,,,,,,,,,,,,,,,,,,,,,,,,,,,,,,,,,,,
147.04,0.6,136.5,W7BAR,"Vernal, Grizzly Ridge",UT,OPEN,,,95.86,WNW,,49,181,40.73960114,-109.48400116,147.04,147.64,136.5,,Uintah,DN50GR,On-Air,Borderline ARC,,Full-time to the Sinbad Desert (SDARC) System .,UVHFS,2015-03-09,,E-power.,"Wide area: Vernal, Roosevelt, Duchesne and other Uintah basin communities.",,,8,,,,,,,,,,,,,,,,,,,,,,,,,,,,,,,,,,,,,,,,,,,,,,,,,,,,,,,,,,,,,,,,,,
145.49,-0.6,136.5,K7HEN,"Vernal, Grizzly Ridge",UT,OPEN,,,96.42,WNW,,49,24,40.75170135,-109.48699951,145.49,144.89,136.5,,Uintah,DN50GS,On-Air,"W7BYU, Borderline ARC",,,UVHFS,2014-01-20,,"Autopatch, 8,506', linked to (147.320).","Vernal, Roosevelt, Duchesne and other Uintah basin communities.",,,,,,,,,,,,,,,,,,,,,,,,,,,,,,,,,,,,,,,,,,,,,,,,,,,,,,,,,,,,,,,,,,,,,
147.24,0.6,156.7,N0ZSN,"Leadville, Quail Mountain",CO,OPEN,,,101.9,SE,,08,10827,39.25080109,-106.29299927,147.24,147.84,156.7,156.7,Lake,,On-Air,,,,CCARC,2019-07-23,,,,,,,,,,,,,,,,,,,,,,,,,,,,,,,,,,,,,,,,,,,,,,,,,,,,,,,,,,,,,,,,,,,,,,,,
446.875,-5,CC,K7PFJ,"Granby, Mt Chauncey",CO,OPEN,,D,104.44,ESE,,08,15899,40.08610153,-105.93900299,446.875,441.875,,,Clear Creek,,On-Air,,RMHAM,,,2019-11-27,,,,,http://www.rmham.org,,,yes,7,310838,RMHAM c Record retrieved from radioid.net,,,,,,,,,,,,,,,,,,,,,,,,,,,,,,,,,,,,,,,,,,,,,,,,,,,,,,,,,,,,,
146.82,-0.6,123,KA0YDW,Granby,CO,OPEN,,,104.44,ESE,,08,145,40.08610153,-105.93900299,146.82,146.22,123,,Grand,,,GCARA,,,CCARC,2014-09-06,Unknown,E-power.,,,,,,,,,,,,,,,,,,,,,,,,,,,,,,,,,,,,,,,,,,,,,,,,,,,,,,,,,,,,,,,,,,,,,,
145.445,-0.6,88.5,KB0VJJ,"Leadville, Mosquito Pass",CO,OPEN,,,105.68,SE,,08,172,39.28139877,-106.18599701,145.445,144.845,88.5,,Lake,,On-Air,Colorado Connection,,Full-time to the Colorado Connection System .,CCARC,2019-08-16,,E-power (solar).,,,,"At 13,685;, it is one of the highest 2-meter repeaters in North America.",Central Colorado Traffic Net: Daily at 19:30. Colorado Connection Net (all welcome): Thu at 20:00. Statewide ARES: Sun at 20:00.,,,,,,,,,,,,,,,,,,,,,,,,,,,,,,,,,,,,,,,,,,,,,,,,,,,,,,,,,,,,,,,,,
445.05,-5,CC,N0SZ,"Leadville, Mosquito Pass",CO,OPEN,,D,106.43,SE,,08,16783,39.26530075,-106.18199921,445.05,440.05,,,Lake,DM69VG,On-Air,K2AD,Rocky Mountain Ham Radio,,CCARC,2019-11-27,,,,,http://www.rmham.org/,,,yes,7,310852,RMHR c Record retrieved from radioid.net,,,,,,,,RMHAM,"Open Talkgroup View Assignment TS TG Access Southern Colorado 2 719 Full-Time Central Regional 2 720 Full-Time Northern Colorado Regional 2 721 Full-Time function myFunction(id) { var x = document.getElementById(id); if (x.className.indexOf(""w3-show"") == -1) { x.className += "" w3-show""; } else { x.className = x.className.replace("" w3-show"", """"); } }",2,2,2,,,,,,,,,,,,,,,,,,,,,,,,,,,,,,,,,,,,,,,,,,,,,,,,,
146.7,-0.6,107.2,WB0QMR,Breckenridge,CO,OPEN,I,,106.74,SE,,08,23,39.4817009,-106.03800201,146.7,146.1,107.2,,Summit,,On-Air,GRARC,,,CCARC,2013-01-07,,E-power.,,,,,,,,,,,3972,,,,,,,,,,,,,,,,,,,,,,,,,,,,,,,,,,,,,,,,,,,,,,,,,,,,,,,,,,,
146.91,-0.6,107.2,KC0UUX,Montrose,CO,OPEN,,,107.76,S,,08,12442,38.47829819,-107.87599945,146.91,146.31,107.2,107.2,Montrose,,On-Air,,,,CCARC,2014-12-13,,E-Power,,,,,,,,,,,,,,,,,,,,,,,,,,,,,,,,,,,,,,,,,,,,,,,,,,,,,,,,,,,,,,,,,,,,,,
146.79,-0.6,107.2,KD5OPD,Montrose,CO,OPEN,,,107.76,S,,08,7953,38.47829819,-107.87599945,146.79,146.19,107.2,107.2,Montrose,,On-Air,KC0UXX,,,CCARC,2012-09-06,,E-power.,,,,,,,,,,,,,,,,,,,,,,,,,,,,,,,,,,,,,,,,,,,,,,,,,,,,,,,,,,,,,,,,,,,,,,
449.4,-5,131.8,KB0YNA,"Delta, Uncompahgre Butte",CO,OPEN,I,,108.3,SSW,,08,127,38.5766983,-108.64700317,449.4,444.4,131.8,131.8,Mesa,,On-Air,"WA4HND, Grand Mesa Repeater Association",,Full-time to the GMRA Open System .,CCARC,2016-08-19,,E-power.,Wide area via links - Western Colorado - Eastern Utah,,http://www.gmra.org,Closed IRLP out - Ask for a control op,RACES Wed 1930 Hrs,,,,,,3710,,,,,,,,,,,,,,,,,,,,,,,,,,,,,,,,,,,,,,,,,,,,,,,,,,,,,,,,,,,
449.425,-5,103.5,WC3W,Grand Lake,CO,OPEN,A,,110.02,ESE,,08,18131,40.23920059,-105.84700012,449.425,444.425,103.5,103.5,Clear Creek,,On-Air,,,,,2019-09-21,,,"Grand Lake, CO",,,Linked to the Allstar Florida Hub,Sunday and Tuesday nights at 7 PM MT,,,,,,,45202,,,,,,,,,,,,,,,,,,,,,,,,,,,,,,,,,,,,,,,,,,,,,,,,,,,,,,,,,,
445.0875,-5,CC,N0SZ,"Breckenridge, Baldy",CO,OPEN,,D,110.25,SE,,08,16780,39.45899963,-105.97899628,445.0875,440.0875,,,Fremont,DM79AL,On-Air,K2AD,Rocky Mountain Ham Radio,,,2019-11-27,,,,,http://www.rmham.org/,,,yes,7,310830,RMHAM c Record retrieved from radioid.net,,,,,,,,,,,,,,,,,,,,,,,,,,,,,,,,,,,,,,,,,,,,,,,,,,,,,,,,,,,,,
147.39,0.6,88.5,KB0VJJ,"Breckenridge, Bald Mountain",CO,OPEN,,,111.13,SE,,08,24,39.44390106,-105.96900177,147.39,147.99,88.5,123,Summit,DM79AK,On-Air,Colorado Connection,,Full-time to the Colorado Connection System .,CCARC,2019-11-08,,12,Wide area.,,Breckenridge Repeater,"Please Note that 146.790 is the old Breckenridge frequency and this repeater may return to that frequency eventually but is now working on 147.390-. This machine has a split tone, 88.5 rx and 123.0 tx",Central Colorado Traffic Net: Daily at 19:30. Colorado Connection Net (all welcome): Thu at 20:00. Statewide ARES: Sun at 20:00.,,,,,,,,,,,,,,,,,,,,,,,,,,,,,,,,,,,,,,,,,,,,,,,,,,,,,,,,,,,,,,,,,
448.825,-5,100,KB5ITS,"Montrose, Raspberry",CO,OPEN,,,112,S,,08,18465,38.41740036,-107.84600067,448.825,443.825,100,,Montrose,,On-Air,San Juan Connection,,,,2020-01-17,,,"Nucla, Uncompahgre Plateau, coverage into Montrose and ?West End?",,http://www.sjcham.com,,,,,,,,,,,,,,,,,,,,,,,,,,,,,,,,,,,,,,,,,,,,,,,,,,,,,,,,,,,,,,,,,,,
447.45,-5,103.5,WA4CCC,Winter Park,CO,OPEN,,,112.29,ESE,,08,3756,39.94729996,-105.79499817,447.45,442.45,103.5,,Grand,DM79CW,On-Air,W0IG,,,CCARC,2013-10-26,,,,,,,,,,,,,,,,,,,,,,,,,,,,,,,,,,,,,,,,,,,,,,,,,,,,,,,,,,,,,,,,,,,,,,,,
447.125,-5,103.5,AA0BF,"Fairplay, Sacramento Mountain",CO,OPEN,A,,112.75,SE,,08,5336,39.20999908,-106.08699799,447.125,442.125,103.5,103.5,Park,DM69wf,On-Air,AA0BF,"Park County Radio Club, AB0PC",,CCARC,2019-03-08,,Emergency automatic generator.,"Covers Fairplay, Alma, and western South Park.",,,"Normally linked via Allstar to 45835 - AB0PC, Bailey, CO.","When connected to AB0PC - Bailey: ARES Mon 19:00, Park County Radio Club Wed 19:30.",,,,,,,45840,,,,,,,,,,,,,,,,,,,,,,,,,,,,,,,,,,,,,,,,,,,,,,,,,,,,,,,,,,
147.285,0.6,88.5,KB0VJJ,"Winter Park, Winter Park",CO,OPEN,,,114.34,ESE,,08,15582,39.88650131,-105.76300049,147.285,147.885,88.5,123,Grand,,On-Air,Colorado Connection,,Full-time to the Colorado Connection System .,CCARC,2017-01-06,,,,,,,,,,,,,,,,,,,,,,,,,,,,,,,,,,,,,,,,,,,,,,,,,,,,,,,,,,,,,,,,,,,,,,,,
448.65,-5,,KB0YNA,"Montrose, Waterdog Peak",CO,OPEN,,,114.73,S,,08,15213,38.38750076,-107.6740036,448.65,443.65,,151.4,Montrose,,On-Air,KB0YNA,,"Full-time to 447.65000 (KB0YNA) at Gunnison, W Mountain or Tenderfoot Mountain, CO .",,2016-10-11,,,Wide area.,,,,,,,,,,,,,,,,,,,,,,,,,,,,,,,,,,,,,,,,,,,,,,,,,,,,,,,,,,,,,,,,,,,,,
447.2,-5,107.2,WA4HND,"Montrose, Waterdog Peak",CO,OPEN,I,,114.73,S,,08,69,38.38750076,-107.6740036,447.2,442.2,107.2,107.2,Montrose,,On-Air,,Grand Mesa Repeater Assoc,Full-time to the GMRA Open System .,CCARC,2018-01-15,,9,Delta/Montrose,,GMRA Repeaters,Closed IRLP out - Ask for a control op,RACES Net Wed at 1930 Hrs.,,,,,,3710,,,,,,,,,,,,,,,,,,,,,,,,,,,,,,,,,,,,,,,,,,,,,,,,,,,,,,,,,,,
146.94,-0.6,100,KE7UUJ,"Rock Springs, Aspen Mountain",WY,OPEN,,,115.19,NNW,,56,10,41.4333992,-109.11599731,146.94,146.34,100,,Sweetwater,DN51KK,On-Air,Sweetwater ARC,,,WRCG,2019-02-15,,,Wide area. 75 mi radius.,,http://www.wy7u.org/,,Sunday ARES/Races @ 7:30 PM,,,,,,,,,,,,,,,,,,,,,,,,,,,,,,,,,,,,,,,,,,,,,,,,,,,,,,,,,,,,,,,,,
146.61,-0.6,100,KE7FGD,"Rock Springs, Aspen Mountain",WY,OPEN,,,115.25,NNW,,56,11,41.43379974,-109.11699677,146.61,146.01,100,,Sweetwater,DN51KK,On-Air,SWARC Sweetwater Amateur Radio Club,,,WRCG,2019-02-15,,,Wide area: SW Wyoming,,http://www.wy7u.org/,,Sun at 19:30 on 146.940 TN 100 Hz,,,,,,,,,,,,,,,,,,,,,,,,,,,,,,,,,,,,,,,,,,,,,,,,,,,,,,,,,,,,,,,,,
449.95,-5,,K5GF,Gunnison,CO,OPEN,,,115.82,SSE,,08,161,38.54579926,-106.92500305,449.95,444.95,,,Gunnison,,,K5GF,,,CCARC,2012-11-10,Unknown,,,,,,,,,,,,,,,,,,,,,,,,,,,,,,,,,,,,,,,,,,,,,,,,,,,,,,,,,,,,,,,,,,,,,,,
147.12,0.6,,W0VTL,Gunnison,CO,OPEN,,,115.82,SSE,,08,160,38.54579926,-106.92500305,147.12,147.72,,,Gunnison,,On-Air,W0VTL,,,CCARC,2014-09-01,,E-power.,,,,,,,,,,,,,,,,,,,,,,,,,,,,,,,,,,,,,,,,,,,,,,,,,,,,,,,,,,,,,,,,,,,,,,
145.49,-0.6,136.5,W7BYU,"Myton, Flat Top",UT,OPEN,,,116.45,W,,49,13041,40.22219849,-110.10399628,145.49,144.89,136.5,,Duchesne,DN40WF,On-Air,,Sinbad Desert ARC (SDARC),,UVHFS,2017-06-29,,E-power.,"Duchesne, UT area.",,http://sdarc.us/repeaters/flat-top.html,5,,,,,,,,,,,,,,,,,,,,,,,,,,,,,,,,,,,,,,,,,,,,,,,,,,,,,,,,,,,,,,,,,,
447.65,-5,151.4,KB0YNA,"Gunnison, W Mountain or Tenderfoot Mountain",CO,OPEN,,,122.71,SE,,08,15212,38.61249924,-106.54299927,447.65,442.65,151.4,151.4,Gunnison,,On-Air,KB0YNA,,"Full-time to 448.65000 (KB0YNA) at Montrose, Waterdog Peak, CO . Full-time to 449.65000 (KB0YNA) at Grand Junction, Grand Mesa, CO .",CCARC,2016-10-28,,"Linked to 448.650 in Montrose, Colorado and 449.650 in Grand Junction, Colorado.",Gunnison valley and along East and west on Highway 50.,,,,,,,,,,,,,,,,,,,,,,,,,,,,,,,,,,,,,,,,,,,,,,,,,,,,,,,,,,,,,,,,,,,,,
147.015,0.6,146.2,N7UW,"Laramie, Jelm Mountain",WY,OPEN,E,Y,125.25,NE,Node Offline,56,15436,41.09719849,-105.97699738,147.015,147.615,146.2,,Albany,,On-Air,"Albany County ARES/RACES, University Amateur Radio",,,,2017-02-24,,,Albany County,82070,http://www.uwyo.edu/uarc/,,,,,,,,,,,,,,,,,,,yes,Open ↑ / Open ↓,Yes; analog capable.,,,,,,,,,,,,,,,,,,,,,,,,,,,,,,,,,,,,,,,,,,,,,,
448.3,-5,100,KD7SU,Rawlins,WY,OPEN,,,126.18,NNE,,56,15548,41.79109955,-107.23899841,448.3,443.3,100,,Carbon,,,,,,WRCG,2017-01-04,Unknown,,,,,,,,,,,,,,,,,,,,,,,,,,,,,,,,,,,,,,,,,,,,,,,,,,,,,,,,,,,,,,,,,,,,,,,
146.7,-0.6,162.2,N7RON,Rawlins,WY,OPEN,I,,126.18,NNE,,56,5791,41.79109955,-107.23899841,146.7,146.1,162.2,,Carbon,,On-Air,,,,WRCG,2017-01-04,,,,,,,,,,,,,7045,,,,,,,,,,,,,,,,,,,,,,,,,,,,,,,,,,,,,,,,,,,,,,,,,,,,,,,,,,,
449.8,-5,146.2,N7RON,Rawlins,WY,OPEN,,,126.18,NNE,,56,15551,41.79109955,-107.23899841,449.8,444.8,146.2,,Carbon,,,Wyocomm,,,WRCG,2017-01-04,Unknown,,,,,,,,,,,,,,,,,,,,,,,,,,,,,,,,,,,,,,,,,,,,,,,,,,,,,,,,,,,,,,,,,,,,,,,
445.05,-5,CC,WY7EOC,Rawlins,WY,CLOSED,,D,126.18,NNE,,56,13858,41.79109955,-107.23899841,445.05,440.05,,,Carbon,DN61JS,On-Air,Laramie County EM,Wyoming DMR Project,,WRCG,2019-12-12,,,Wide area.,,,,,yes,11,315609,WyDMR c Record retrieved from radioid.net,,,,,,,,Wyoming DMR Project,"Open Talkgroup View Assignment TS TG Access Wyoming 1 3156 Full-Time WyLOCAL 2 100 Full-Time function myFunction(id) { var x = document.getElementById(id); if (x.className.indexOf(""w3-show"") == -1) { x.className += "" w3-show""; } else { x.className = x.className.replace("" w3-show"", """"); } }",,,,,,,Wyoming DMR Project,1,2,,,,,,,,,,,,,,,,,,,,,,,,,,,,,,,,,,,,,,,,,,,
146.76,-0.6,100,KC7OZU,Rawlins,WY,OPEN,,,126.19,NNE,,56,43,41.79109955,-107.23799896,146.76,146.16,100,,Carbon,,On-Air,CCARS,,,,2017-10-06,,,Wide area.,,,,Sunday nite net 2030 local time.,,,,,,,,,,,,,,,,,,,,,,,,,,,,,,,,,,,,,,,,,,,,,,,,,,,,,,,,,,,,,,,,,
147.39,0.6,100,KD7BN,Rawlins,WY,OPEN,,,126.19,NNE,,56,55,41.79109955,-107.23799896,147.39,147.99,100,,Carbon,,On-Air,HERC,N7ZEF (EchoLink).,"Full-time to 146.80500 (W7BEQ) at Shoshoni, Copper Mtn, WY . Full-time to 146.94000 (W7VNJ) at Casper, Casper Mountain, WY .",,2017-01-04,,E-power.,Wide area.,,,,,,,,,,,,,,,,,,,,,,,,,,,,,,,,,,,,,,,,,,,,,,,,,,,,,,,,,,,,,,,,,,,,,
146.655,-0.6,107.2,KE7UUJ,"Rock Springs, Aspen Mountain",WY,OPEN,E,Y,126.57,NNW,ON - IDLE,56,13123,41.58750153,-109.20300293,146.655,146.055,107.2,107.2,Sweetwater,,On-Air,Sweetwater Amateur Radio Club,,,,2019-02-15,,Fusion IN - FM Out,Wide area. 100 mi radius.,865361,http://wy7u.angelfire.com,Sweetwater Amateur Radio Club uses this repeater pair for ARES/RACES use. Fusion or FM in and FM output,,,,,,,,,,,,,,,,,,yes,Open ↑ / Open ↓,Yes; analog capable.,,,,,,,,,,,,,,,,,,,,,,,,,,,,,,,,,,,,,,,,,,,,,,
147.3,0.6,CC,KF7OBL,Rock Springs,WY,OPEN,,D,126.57,NNW,,56,12934,41.58750153,-109.20300293,147.3,147.9,,,Sweetwater,,On-Air,,,,WRCG,2019-12-20,,,,,,,,yes,1,315604,DMR-plus c Record retrieved from radioid.net,,,,,,,,,,,,,,,,,,,,,,,,,,,,,,,,,,,,,,,,,,,,,,,,,,,,,,,,,,,,,
448.875,-5,CC 123.0,KF7OBL,Rock Springs,WY,OPEN,,D,126.57,NNW,,56,13028,41.58750153,-109.20300293,448.875,443.875,123,,Sweetwater,DN51JO,On-Air,,,,,2019-12-12,,DMRPlus,,,,,,yes,1,315602,DMR-plus c Record retrieved from radioid.net,,,,,,,,,"Open Talkgroup View Assignment TS TG Access Worldwide 1 1 North America 1 3 English 1 13 Local/Cluster 2 2 Mountain Reg USA 2 3177 function myFunction(id) { var x = document.getElementById(id); if (x.className.indexOf(""w3-show"") == -1) { x.className += "" w3-show""; } else { x.className = x.className.replace("" w3-show"", """"); } }",,,,,,Yes; analog capable.,,,,1,1,1,2,2,,,,,,,,,,,,,,,,,,,,,,,,,,,,,,,,,,,,,,
147.28,0.6,107.2,AD7ZW,Altamont,UT,OPEN,EI,,127.1,W,ON - In Conference IRLP 9257,49,14977,40.35969925,-110.28399658,147.28,147.88,107.2,107.2,Duchesne,DN40UI,On-Air,AD7ZW,,,UVHFS,2016-11-20,,Autopatch,,458414,http://ad7zwrepeater.xyz,,,,,,,,3205,,B21 = 911 B22 = Local Public Safety Dispatch (Non Emergency) B3 = 3 Minute Autopatch Extension B0 = Autopatch Disconnect,,,,,,,,,,,,,,,,,,,,,,,,,,,,,,,,,,,,,,,,,,,,,,,,,,,,,,,,,
444.5,5,123,N7ABC,Rock Springs,WY,OPEN,,,127.1,NNW,,56,58,41.58639908,-109.22399902,444.5,449.5,123,,Sweetwater,,On-Air,Sweetwater ARC,,,,2015-01-16,,,,,,,,,,,,,,,,,,,,,,,,,,,,,,,,,,,,,,,,,,,,,,,,,,,,,,,,,,,,,,,,,,,,,,,,
146.74,-0.6,100,WB7CBS,Altamont,UT,OPEN,,,127.2,W,,49,253,40.3594017,-110.28600311,146.74,146.14,100,,Duchesne,,Off-Air,,,,UVHFS,2015-06-11,,Autopatch.,,,,,,,,,,,,,,,,,,,,,,,,,,,,,,,,,,,,,,,,,,,,,,,,,,,,,,,,,,,,,,,,,,,,,,
224.6,-1.6,100,W0RM,Rollinsville,CO,OPEN,,,127.98,ESE,,08,201,39.91719818,-105.50099945,224.6,223,100,,Gilpin,,,W0RM,,,CCARC,2012-11-10,Unknown,,,,,,,,,,,,,,,,,,,,,,,,,,,,,,,,,,,,,,,,,,,,,,,,,,,,,,,,,,,,,,,,,,,,,,,
147.24,0.6,CC,N0WAR,"Estes Park, Prospect Mtn",CO,OPEN,,D,128.25,ESE,"DMR BrandMeister Repeater in Estes Park, Colorado Wide area coverage of Estes Park, Colorado &amp; Rocky Mountain National Park. Static TG of 3171 on T.S. 2 Located @ KC0KBP QTH",08,17813,40.36059952,-105.51999664,147.24,147.84,,,Larimer,DN70FI,On-Air,N0WAR,W0DMR,,,2019-11-27,,Brandmeister Network,Wide Area: Estes Park &amp; Rocky Mtn Nat Park,,http://www.w0dmr.org,,,yes,2,310853,Brandmeister c Record retrieved from radioid.net,,,,,,,,,,,,,,,,,,,,,,,,,,,,,,,,,,,,,,,,,,,,,,,,,,,,,,,,,,,,,
449.8,-5,123,N0FH,Estes Park,CO,OPEN,EI,,128.39,E,ON - IDLE,08,120,40.37720108,-105.52100372,449.8,444.8,123,,Larimer,,On-Air,Estes Valley ARC,,"Full-time to 146.68500 (N0FH) at Estes Park, CO .",CCARC,2017-08-05,,E-Power,,625757,,"Both Echolink and IRLP are open, IRLP connect is a four digit node number only and '73' to disconnect. Top of Hour time is announced from 0600 to 2200.",ARES D-10: Thu at 19:00.,,,,,,7268,,"The EchoLink node connects to both machines. The node is open (no passwords; touch tone only the the ' * ' character followed by a four, five, or six digit node number where you wish to connect). The disconnect is ' # '.",,,,,,,,,,,,,,,,,,,,,,,,,,,,,,,,,,,,,,,,,,,,,,,,,,,,,,,,,
447.8,-5,CC,AD0RM,"Ridgway, On top of Log Hill",CO,OPEN,,D,128.52,S,Static Talkgroups: 91 - Worldwide English - Slot 1,08,17998,38.18000031,-107.79000092,447.8,442.8,,,Ouray,DM68CE,On-Air,AD0RM,,,,2019-11-27,,,Montrose to Ouray,,,,,yes,1,311075,BrandMeister c Record retrieved from radioid.net,,,,,,,,,,,,,,,,,,,,,,,,,,,,,,,,,,,,,,,,,,,,,,,,,,,,,,,,,,,,,
446.7625,-5,CC,N0SZ,"Fairplay, Badger",CO,OPEN,,D,128.59,SE,,08,12698,39.0469017,-105.87000275,446.7625,441.7625,,,Park,,On-Air,K7PFJ,RMHAM,,,2019-11-27,,,,,,,,yes,7,310827,RMHR c Record retrieved from radioid.net,,,,,,,,,"Open Talkgroup View Assignment TS TG Access Rocky Mountain Wide 1 700 Central Regional 2 720 function myFunction(id) { var x = document.getElementById(id); if (x.className.indexOf(""w3-show"") == -1) { x.className += "" w3-show""; } else { x.className = x.className.replace("" w3-show"", """"); } }",,2,,,,,,,,,,,,,1,,,,,,,,,,,,,,,,,,,,,,,,,,,,,,,,,,,,,
146.76,-0.6,88.5,K7QEQ,"Moab, Bald Mesa",UT,OPEN,,,128.64,SW,,49,13042,38.52859879,-109.3219986,146.76,146.16,88.5,,Grand,,On-Air,SDARC,,,UVHFS,2019-11-27,,,Moab and immediate surroundings.,,http://162.250.21.7/index.html,8,,,,,,,,,,,,,,,,,,,,,,,,,,,,,,,,,,,,,,,,,,,,,,,,,,,,,,,,,,,,,,,,,,
449.1,-5,107.2,K7QEQ,"Moab, Bald Mesa",UT,OPEN,,,128.73,SW,,49,52,38.52859879,-109.32499695,449.1,444.1,107.2,107.2,Grand,DM58IM,On-Air,Grand Mesa Repeater Association (GMRA),,,UVHFS,2017-11-04,,8,"Wide area: Moab and surrounding areas, including large portions of Arches and Canyonlands National Parks.",,GMRA Repeaters,,RACES Wed. 1930 hours,,,,,,,,,,,,,,,,,,,,,,,,,,,,,,,,,,,,,,,,,,,,,,,,,,,,,,,,,,,,,,,,,
449.05,-5,107.2,WG0N,"Idaho Springs, Squaw Mountain",CO,OPEN,,,128.81,ESE,,08,95,39.74250031,-105.51399994,449.05,444.05,107.2,107.2,Denver,DM79FR,On-Air,WG0N,,,CCARC,2012-11-20,,E-power.,Wide area.,,,,,,,,,,,,,,,,,,,,,,,,,,,,,,,,,,,,,,,,,,,,,,,,,,,,,,,,,,,,,,,,,,,,,
146.745,-0.6,100,W0LSD,Nathrop,CO,OPEN,,,129.41,SE,,08,184,38.71289825,-106.19999695,146.745,146.145,100,,Chaffee,,On-Air,CLARA,,,CCARC,2019-07-21,,E-power.,,,,,,,,,,,,,,,,,,,,,,,,,,,,,,,,,,,,,,,,,,,,,,,,,,,,,,,,,,,,,,,,,,,,,,
147.03,0.6,100,KI0HG,"Allenspark, AFPD Station #5",CO,OPEN,,,129.55,ESE,,08,15670,40.17269897,-105.46800232,147.03,147.63,100,,Boulder,,On-Air,KI0HG,Boulder County Amateur Radio Emergency Service,,CCARC,2017-01-20,,,,,,,,,,,,,,,,,,,,,,,,,,,,,,,,,,,,,,,,,,,,,,,,,,,,,,,,,,,,,,,,,,,,,,,,
444.775,5,CC 123.0,AD0BN,"Green River, Green River High School",WY,OPEN,,D,129.67,NW,,56,11520,41.50109863,-109.46399689,444.775,449.775,123,123,Sweetwater,DN51GM,Testing,,,,WRCG,2019-12-12,,,"Note: This repeater will operate in digital mode only. It may, however, be switched to analogue mode under special circumstances and will use a tone of 123/123. Digital repeater should provide portable coverage in the Green River area when operational. Repeater is not currently on-air but has been coordinated and is awaiting installation. Please use Talkgroup 2 and Timeslot 2 for local communications. Repeater uses color 12.",,,,,yes,12,,c Record retrieved from radioid.net,,,,,,,,,,,,,,,,,,,,,,,,,,,,,,,,,,,,,,,,,,,,,,,,,,,,,,,,,,,,,
446.9375,-5,CC,N0SZ,"Idaho Springs, Squaw Mountain",CO,OPEN,,D,130.71,ESE,,08,7190,39.67979813,-105.49299622,446.9375,441.9375,,,Clear Creek,,On-Air,Rocky Mountain Ham Radio,,Full-time to the Colorado TRBO System .,CCARC,2019-11-27,,,,,Rocky Mountain Ham Radio,See the website for programming information.,,yes,7,310801,RMHR c Record retrieved from radioid.net,,,,,,,,RMHAM,"Open Talkgroup View Assignment TS TG Access Rocky Mountain Wide 1 700 Full-Time Southern Colorado 2 719 Full-Time Central Regional 2 720 Full-Time Northern Colorado Regional 2 721 Full-Time function myFunction(id) { var x = document.getElementById(id); if (x.className.indexOf(""w3-show"") == -1) { x.className += "" w3-show""; } else { x.className = x.className.replace("" w3-show"", """"); } }",2,2,2,,,,,,,,,,,,1,,,,,,,,,,,,,,,,,,,,,,,,,,,,,,,,,,,,,
448.225,-5,141.3,N0SZ,"Idaho Springs, Squaw Mountain",CO,OPEN,,,130.71,ESE,,08,8197,39.67969894,-105.49299622,448.225,443.225,141.3,141.3,Clear Creek,DM79GQ,On-Air,Rocky Mountain Ham Radio,,,CCARC,2016-05-24,,E-power(gen).,,,,,,,,,,,,,,,,,,,,,,,,,,,,,,,,,,,,,,,,,,,,,,,,,,,,,,,,,,,,,,,,,,,,,,
146.94,-0.6,103.5,W0WYX,"Idaho Springs, Squaw Mountain",CO,OPEN,,,130.71,ESE,,08,81,39.67979813,-105.49299622,146.94,146.34,103.5,103.5,Clear Creek,DM79GQ,On-Air,Rocky Mtn Radio League,,"Linkable to 449.82500 (W0WYX) at Broomfield, CO . Linkable to 449.45000 (K1DUN) at Idaho Springs, Squaw Mountain, CO .",CCARC,2017-03-11,,11,"Wide area: west to the Continental Divide, south to Colorado Springs, east to Limon, and north to Cheyenne.",,Repeater,,Colorado WX: Daily at 06:30. RMRL: Mod at 20:30. Astronomy: Tue at 19:00. Amateur Radio Events: Tue at 20:00.,,,,,,,,Autopatch: 911* / Off 0*.,,,,,,,,,,,,,,,,,,,,,Listen Live,,,,,,,,,,,,,,,,,,,,,,,,,,,,,,,,,,,,
449.45,-5,103.5,K1DUN,"Idaho Springs, Squaw Mountain",CO,OPEN,,,130.72,ESE,,08,99,39.6794014,-105.49299622,449.45,444.45,103.5,127.3,Clear Creek,DM79GQ,On-Air,Rocky Mountain Radio League,,,CCARC,2016-12-23,,11,"Wide area: West to the Continental Divide, south to Colorado Springs, east to Limon, and north to Cheyenne.",,Repeater,,RMRL: Mon at 20:30.,,,,,,,,,,,,,,,,,,,,,,,,,,,,,,,,,,,,,,,,,,,,,,,,,,,,,,,,,,,,,,,,,
146.67,-0.6,100,KB0UDD,"Idaho Springs, Squaw Mountain",CO,OPEN,,,130.77,ESE,,08,78,39.6794014,-105.49199677,146.67,146.07,100,100,Clear Creek,,On-Air,Castle Rock Repeater Group,,,CCARC,2019-11-11,,11,"North to Cheyenne, Wy - East to Limon, Co - South to Colorado Springs, Co and West to the Continental Divide.",,,,CRRG/QCWA: Sun at 0930. Southern Metro LDS Ham Group: Sun at 1900. ARES23: Thu at 1930. ARES13: Sun at 2000.,,,,,,,,,,,,,,,,,,,,,,,,,,,,,,,,,,,,,,,,,,,,,,,,,,,,,,,,,,,,,,,,,
145.145,-0.6,107.2,W0CRA,"Idaho Springs, Squaw Mountain",CO,OPEN,,,130.77,ESE,,08,107,39.6794014,-105.49199677,145.145,144.545,107.2,107.2,Clear Creek,,On-Air,Colorado Repeater Assoc,,,CCARC,2019-11-11,,E-power.,Wide area. Denver metro.,,http://www.w0cra.org/info/squaw.html#145145,,,,,,,,,,,,,,,,,,,,,,,,,,,,,,,,,,,,,,,,,,,,,,,,,,,,,,,,,,,,,,,,,,,
447.575,-5,107.2,W0CRA,"Idaho Springs, Squaw Mountain",CO,OPEN,EI,,130.77,ESE,ON - IDLE,08,264,39.6794014,-105.49199677,447.575,442.575,107.2,107.2,Clear Creek,,On-Air,Colorado Repeater Association (CRA),,,CCARC,2017-11-13,,,Wide area: Denver metro.,347088,http://www.w0cra.org,,,,,,,,3291,,Member-only IRLP and Echolink node,,,,,,,,,,,,,,,,,,,,,,,,,,,,,,,,,,,,,,,,,,,,,,,,,,,,,,,,,
145.49,-0.6,100,W0TX,"Idaho Springs, Centennial Cone",CO,OPEN,,,130.77,ESE,,08,76,39.6794014,-105.49199677,145.49,144.89,100,100,Jefferson,,On-Air,"KB0VIU, Denver Radio Club",,"Full-time to 448.62500 (W0TX) at Golden, Centennial Cone, CO .",CCARC,2017-03-11,,E-power.,,,DRC Repeaters,,DRC: Sun at 20:30.,,,,,,,,,,,,,,,,,,,,,,,,,,,,,,,,,,,,,,,,,,,,,,,,,,,,,,,,,,,,,,,,,
449.35,-5,100,W0TX,"Idaho Springs, Squaw Mountain",CO,OPEN,E,,130.77,ESE,Node Offline,08,98,39.6794014,-105.49199677,449.35,444.35,100,100,Clear Creek,,On-Air,Denver Radio Club,,,CCARC,2017-03-11,,11,Wide area.,4140,DRC Repeaters,,,,,,,,,,,,,,,,,,,,,,,,,,,,,,,,,,,,,,,,,,,,,,,,,,,,,,,,,,,,,,,,,,,
448.675,-5,100,W0CFI,"Idaho Springs, Squaw Mountain",CO,OPEN,,,131.01,ESE,,08,94,39.67739868,-105.48799896,448.675,443.675,100,100,Denver,,On-Air,W0CFI,,,CCARC,2020-02-06,,,Wide area.,,,,,,,,,,,,,,,,,,,,,,,,,,,,,,,,,,,,,,,,,,,,,,,,,,,,,,,,,,,,,,,,,,,,,
147.3,0.6,103.5,N0PYY,"Evergreen, Squaw Mountain",CO,OPEN,,,131.05,ESE,,08,84,39.67810059,-105.48699951,147.3,147.9,103.5,103.5,Clear Creek,DM79GQ,On-Air,Denver PD EEB,,,CCARC,2017-03-11,,,Wide area.,,,,,,,,,,,,,,,,,,,,,,,,,,,,,,,,,,,,,,,,,,,,,,,,,,,,,,,,,,,,,,,,,,,,,
147.26,0.6,,N7PQD,Duchense,UT,OPEN,,,131.28,W,,49,152,40.15470123,-110.39199829,147.26,147.86,,,Duchesne,DN40TD,On-Air,Borderline ARC,,,UVHFS,2016-05-07,,5,"Tabby mountain and nearby communities including Duchesne, Roosevelt, and Vernal.",,,,,,,,,,,,,,,,,,,,,,,,,,,,,,,,,,,,,,,,,,,,,,,,,,,,,,,,,,,,,,,,,,,,,
449,-5,136.5,WR0AEN,"Idaho Springs, Squaw Mountain",CO,OPEN,,,131.48,ESE,,08,8250,39.6731987,-105.48000336,449,444,136.5,136.5,Clear Creek,,On-Air,CARN,,,CCARC,2017-03-11,,,,,,,,,,,,,,,,,,,,,,,,,,,,,,,,,,,,,,,,,,,,,,,,,,,,,,,,,,,,,,,,,,,,,,,,
147.32,0.6,88.5,K7SDC,"Sunnyside, Bruin Point",UT,OPEN,EI,,131.78,WSW,ON - IDLE,49,58,39.63890076,-110.34200287,147.32,147.92,88.5,,Carbon,DM49tp,On-Air,Sinbad Desert ARC,,,UVHFS,2020-02-09,,Remote base.,"Wide area: Roosevelt, Duchesne, near Vernal, and Price, with spotty coverage from Price down to I-70 on US-6 and US-10. 50 mi radius.",64264,http://sdarc.us/repeaters/bruin.html,110,,,,,,,3270,,,,,,,,,,,,,,,,,,,,,,,,yes,,,,,,,,,,,,,,,,,,,,,,,,,,,,,,,,,,,
449.05,-5,88.5,K7SDC,"Sunnyside, Bruin Point",UT,OPEN,EI,,131.78,WSW,ON - IDLE,49,59,39.63890076,-110.34200287,449.05,444.05,88.5,,Carbon,DM49TP,On-Air,Sinbad Desert ARC,,,UVHFS,2008-07-11,,Remote base.,"Wide area: Roosevelt, Duchesne, near Vernal, and Price, with spotty coverage from Price down to I-70 on US-6 and US-10.",64264,http://sdarc.us/repeaters/bruin.html,,,,,,,,3270,,,,,,,,,,,,,,,,,,,,,,,,yes,,,,,,,,,,,,,,,,,,,,,,,,,,,,,,,,,,,
146.685,-0.6,123,N0FH,Estes Park,CO,OPEN,EI,,131.83,ESE,ON - IDLE,08,119,40.36009979,-105.4509964,146.685,146.085,123,,Larimer,DN70GI,On-Air,Estes Valley ARC,,"Full-time to 449.80000 (N0FH) at Estes Park, CO .",CCARC,2017-08-05,,E-power.,Estes Valley and east RMNP - some coverage E and SE (Loveland and Denver),625757,,"Both Echolink and IRLP are open, IRLP connect is a four digit node number only and '73' to disconnect. Top of Hour time is announced from 0600 to 2200.",ARES D-10: Thu at 19:00.,,,,,,7268,,"The EchoLink node connects to both machines. The node is open (no passwords; touch tone only the the ' * ' character followed by a four, five, or six digit node number where you wish to connect). The disconnect is ' # '.",,,,,,,,,,,,,,,,,,,,,,,,,,,,,,,,,,,,,,,,,,,,,,,,,,,,,,,,,
147.24,0.6,100,N7GCR,"Rawlins, Elk Mountain",WY,OPEN,,,131.97,NNE,,56,29,41.63330078,-106.52600098,147.24,147.84,100,,Carbon,DN61RP,On-Air,CCARS,,,WRCG,2017-01-04,,,Wide area.,,,,,,,,,,,,,,,,,,,,,,,,,,,,,,,,,,,,,,,,,,,,,,,,,,,,,,,,,,,,,,,,,,,,,
447.6,-5,CC,W1VAN,"Red Feather Lakes, Red Feather Lakes",CO,OPEN,,D,131.97,E,Static Talkgroups: 3171 - N. Colorado - Slot 2 31083 - CO Severe WX - Slot 1,08,17821,40.80759811,-105.61699677,447.6,442.6,,,Larimer,,On-Air,W1VAN,W0DMR,,,2019-11-27,,Brandmeister Network,Covers Red Feather Lakes Area,,http://www.w0dmr.org,,,yes,2,310869,brandmeister c Record retrieved from radioid.net,,,,,,,,,,,,,,,,,,,,,,,,,,,,,,,,,,,,,,,,,,,,,,,,,,,,,,,,,,,,,
145.175,-0.6,,WX7Y,"Sunny Side, Bruin Peak",UT,OPEN,,,132,W,,49,15319,39.6446991,-110.34799957,145.175,144.575,,,Carbon,,On-Air,SDARC,Sinbad Desert A.R.C.,,,2018-01-11,,,Eastern Utah,,,,,,,,,,,,United States,,,,,,,,,,,,,,,,,,,,,,,,,,,,,,,,,,,,,,,,,,,,,,,,,,,,,,,,,
145.31,-0.6,88.5,KB0VJJ,"Boulder, Thorodin Mountain",CO,OPEN,,,132.12,ESE,,08,72,39.88750076,-105.4260025,145.31,144.71,88.5,123,Gilpin,DM79GV,On-Air,Colorado Connection,,Full-time to the Colorado Connection System .,CCARC,2019-08-15,,10,"Wide area: Cheyenne, Wyoming to the north, Monument, Colorado to the south, Limon, Colorado to the east, and the continental divide to the west.",,,"Split tone. The repeater still transmits 123.0 for those wishing to use tone squelch, you must run a split tone 88.5 TX and 123.0 RX",Colorado Traffic Net: Daily at 19:30. Colorado Connection Net (all welcome): Thu at 20:00. Statewide ARES: Sun at 20:00.,,,,,,,,,,,,,,,,,,,,,,,,,,,,,,,,,,,,,,,,,,,,,,,,,,,,,,,,,,,,,,,,,
449.225,-5,141.3,N0SZ,"Denver, Thorodin Mountain",CO,OPEN,,,132.12,ESE,,08,97,39.88750076,-105.4260025,449.225,444.225,141.3,141.3,Gilpin,DM79GV,On-Air,Rocky Mountain Ham Radio (RMHR),,,CCARC,2015-11-03,,Emergency Power,Wide area.,,,"Emcomm Affiliated, Open repeater",,,,,,,,,,,,,,,,,,,,,,,,,,,,,,,,,,,,,,,,,,,,,,,,,,,,,,,,,,,,,,,,,,
448.575,-5,103.5,WZ0N,Hartsel,CO,OPEN,,,132.35,SE,,08,9840,38.88330078,-105.93299866,448.575,443.575,103.5,103.5,Park,DM78AV,Off-Air,,,"Full-time internet linked to 146.89500 (AB0PC) at Bailey, Dick Mountain, CO .",CCARC,2017-11-22,,,Western Park County,,,,,,,,,,,,,,,,,,,,,,,,,,,,,,,,,,,,,,,,,,,,,,,,,,,,,,,,,,,,,,,,,,,,,
146.91,0.6,123,W0JZ,Gold Hill,CO,OPEN,,,132.4,ESE,,08,13368,40.06330109,-105.41000366,146.91,147.51,123,127.3,Boulder,,On-Air,,"Town of Gold Hill, Colorado",,,2017-04-09,,,"East of Gold Hill, The Indian Peaks, Denver, Boulder",,http://goldhilltown.com/,There is a MOU With BCARES for repeater use.,"Summer Tue at 19:30P, Winter 19:00.",,,,,,,,,,,,,,,,,,,,,,,,,,,,,,,,,,,,,,,,,,,,,,,,,,,,,,,,,,,,,,,,,
447.85,-5,141.3,AC0KQ,"Evergreen, Saddleback Mountain",CO,OPEN,A,,132.96,ESE,,08,9580,39.71889877,-105.44000244,447.85,442.85,141.3,141.3,Clear Creek,,Off-Air,AC0KQ,Rocky Mountain Ham Radio,,CCARC,2019-08-23,,AllStar node repeater providing wide area coverage along the Front Range,Wide area at 9500',,,,,,,,,,,29571,,,,,,,,,,,,,,,,,,,,,,,,,,,,,,,,,,,,,,,,,,,,,,,,,,,,,,,,,,
146.9,-0.6,88.5,K7QEQ,Moab,UT,OPEN,,,133.71,SW,,49,48,38.57389832,-109.5490036,146.9,146.3,88.5,,Grand,,On-Air,Sinbad Desert ARC,,,UVHFS,2015-03-29,,"Closed autopatch, remote base, linked to Bald Mesa (146.760).",Moab and immediate surroundings.,,http://sdarc.us/repeaters/moab.html,,,,,,,,,,,,,,,,,,,,,,,,,,,,,,,,,,,,,,,,,,,,,,,,,,,,,,,,,,,,,,,,,,,
145.325,-0.6,100,KD0MRC,Maysville,CO,OPEN,,,135.01,SE,,08,16739,38.50630188,-106.34500122,145.325,144.725,100,,Chaffee,,On-Air,Chaffee Lake Amateur Repeater Association,,,,2019-09-04,,,wide area,,,,,,,,,,,,,,,,,,,,,,,,,,,,,,,,,,,,,,,,,,,,,,,,,,,,,,,,,,,,,,,,,,,,,
445.05,-5,CC,N0SZ,"Boulder, Lee Hill",CO,OPEN,,D,135.36,ESE,,08,8992,40.07220078,-105.35399628,445.05,440.05,,,Boulder,,On-Air,Rocky Mountain Ham Radio,,,CCARC,2019-11-27,,BrandMeister Network,Wide area,,,,,yes,1,310852,RMHR c Record retrieved from radioid.net,BrandMeister,,,,,,,,,,,,,,,BrandMeister US,,,,,,,,,,,,,,,,,,,,,,,,,,,,,,,,,,,,,,,,,,,,,
446.9875,-5,CC,N0SZ,"Boulder, Lee Hill",CO,OPEN,,D,135.36,ESE,,08,5219,40.07220078,-105.35399628,446.9875,441.9875,,,Boulder,,On-Air,Rocky Mountain Ham Radio,,"Full-time to 446.95000 (K7PFJ) at Colorado Springs, Almagre Mountain, CO . Full-time to the Colorado TRBO System .",,2019-11-27,,Linked on Time Slot 2 to Almagre Mtn (446.950).,,,,,,yes,7,310813,RMHR c Record retrieved from radioid.net,,,,,,,,,,,,,,,,,,,,,,,,,,,,,,,,,,,,,,,,,,,,,,,,,,,,,,,,,,,,,
447.75,-5,141.3,N0SZ,"Boulder, Lee Hill",CO,OPEN,I,,135.36,ESE,,08,19,40.07220078,-105.35399628,447.75,442.75,141.3,141.3,Boulder,,On-Air,Rocky Mountain Ham Radio,,,CCARC,2018-04-24,,,,,,,,,,,,,3450,,,,,,,,,,,,,,,,,,,,,,,,,,,,,,,,,,,,,,,,,,,,,,,,,,,,,,,,,,,
145.46,-0.6,107.2,W0CRA,"Boulder, Eldorado Mountain",CO,OPEN,EI,,135.36,ESE,ON - IDLE,08,8,40.07220078,-105.35399628,145.46,144.86,107.2,107.2,Boulder,,On-Air,Colorado Repeater Association (CRA),CRA VHF Link System,"Full-time to 145.16000 (W0CRA) at Colorado Springs, Cheyenne Mountain, CO . Full-time to 147.22500 (W0CRA) at Larkspur, Westcreek, CO .",CCARC,2017-11-13,,"Closed autopatch, e-power.",Boulder/Denver Metro,347086,,,,,,,,,3990,,Member-only IRLP and Echolink node,,,,,,,,,,,,,,,,,,,,,,,,,,,,,,,,,,,,,,,,,,,,,,,,,,,,,,,,,
447.975,-5,107.2,W0CRA,"Boulder, Eldorado Mountain",CO,OPEN,,,135.36,ESE,,08,20,40.07220078,-105.35399628,447.975,442.975,107.2,107.2,Boulder,DN70HB,On-Air,Colorado Repeater Association (CRA),,,CCARC,2016-09-08,,Closed autopatch.,Wide area: Boulder/Longmont area.,,,,,,,,,,,,,,,,,,,,,,,,,,,,,,,,,,,,,,,,,,,,,,,,,,,,,,,,,,,,,,,,,,,,,
224.02,-1.6,,W0IA,"Boulder, Lee Hill",CO,OPEN,E,,135.36,ESE,ON - IDLE,08,18,40.07220078,-105.35399628,224.02,222.42,,,Boulder,DN70HB,On-Air,Rocky Mtn VHF Soc,,"Full-time to 449.55000 (W0IA) at Boulder, CO .",CCARC,2017-03-11,,8,Denver metro area.,217336,RMVHS repeaters,,,,,,,,,,,,,,,,,,,,,,,,,,,,,,,,,,,,,,,,,,,,,,,,,,,,,,,,,,,,,,,,,,,
927.8375,-25.8,D205,KI0HC,"Golden, Centennial Cone",CO,OPEN,,,136.31,ESE,,08,9702,39.76580048,-105.36599731,927.8375,902.025,D205,100,Jefferson,DM79HS,On-Air,,,Full-time to the The 900 P25 Network System .,CCARC,2020-01-01,,,"Wide area coverage, I 25 from Cheyenne south to MM 20 just north of Trinidad. I 76 East to MM 100. I 70 from Idaho Springs to Genoa. Highway 24 from the Colorado Springs to Limon. Highway 24 west of Colorado Springs is spotty to Hartsel. US 50 from Canon City to Las Animas. Salida south to the San Luis Valley to Antonito. Salida North to just south of Leadville. Repeater Coverage Map",,,,,,,,,,,,,,,,,,,,,,,Yes; analog capable.,,,,,,,,,,,,yes,293,yes,,,,,,,,,,,,,,,,,,,,,,,,,,,,,,,,
446.7875,-5,CC,W0TX,"Denver, Centennial Cone",CO,OPEN,,D,136.31,ESE,,08,7165,39.76570129,-105.36599731,446.7875,441.7875,,,Jefferson,,On-Air,Denver Radio Club,Brandmeister Network,,CCARC,2019-11-27,,,,,http://www.w0tx.org/,,,yes,1,310804,DMR-MARC c Record retrieved from radioid.net,,,,"Any Brandmeister talk group is available on time slot 1, too many to list here, see website. https://dmrx.net/files/US_BM_User_Guide.pdf. TG's are PTT enabled and will timeout after 15 minutes of inactivity. Time Slot 2 Talk Group 310805 is local repeater only.",,,,,,,,,,,,,,,,,,,,,,,,,,,,,,,,,,,,,,,,,,,,,,,,,,,,,,,,,
146.985,-0.6,100,K0FEZ,"Golden, Centennial Cone",CO,OPEN,I,,136.82,ESE,,08,82,39.75249863,-105.35900116,146.985,146.385,100,100,Denver,,On-Air,El Jebel RADOPS,,,CCARC,2016-09-05,,E-power.,,,,,RADOPS: Sun at 19:00.,,,,,,3346,,,,,,,,,,,,,,,,,,,,,,,,,,,,,,,,,,,,,,,,,,,,,,,,,,,,,,,,,,,
145.28,-0.6,100,KE0SJ,"Golden, Centennial Cone",CO,OPEN,,,136.82,ESE,,08,140,39.75249863,-105.35900116,145.28,144.68,100,,Jefferson,DM79HS,On-Air,,,"Full-time to 449.52500 (KE0SJ) at Golden, Centennial Cone, CO .",CCARC,2015-05-22,,"Closed autopatch, e-power, linked.",Wide area.,,Intermountain Repeater Group,"PL is usually off, allowing use by older transceivers.",Sun at 19:30. Everyone welcome.,,,,,,,,,,,,,,,,,,,,,,,,,,,,,,,,,,,,,,,,,,,,,,,,,,,,,,,,,,,,,,,,,
449.525,-5,CSQ,KE0SJ,"Golden, Centennial Cone",CO,OPEN,,,136.82,ESE,,08,138,39.75249863,-105.35900116,449.525,444.525,CSQ,,Jefferson,DM79HS,On-Air,KE0SJ,,"Full-time to 145.28000 (KE0SJ) at Golden, Centennial Cone, CO .",CCARC,2015-05-23,,E-power.,,,Intermountain Repeater Group,,,,,,,,,,,,,,,,,,,,,,,,,,,,,,,,,,,,,,,,,,,,,,,,,,,,,,,,,,,,,,,,,,,
146.64,-0.6,100,N0PUF,"Golden, Centennial Cone",CO,OPEN,,,136.82,ESE,,08,77,39.75249863,-105.35900116,146.64,146.04,100,,Jefferson,,On-Air,Denver Radio League,,,CCARC,2020-03-13,,E-power.,Wide area. Repeater Coverage Map,,DRL Repeaters,8,,,,,,,,,,,,,,,,,,,,,,,,,,,,,,,,,,,,,,,,,,,,,,,,,,,,,,,,,,,,,,,,,,
146.895,-0.6,100,AB0PC,"Bailey, Dick Mountain",CO,OPEN,A,,136.83,SE,,08,7,39.4056015,-105.47299957,146.895,146.295,100,100,Park,,On-Air,AB0RR,,"Full-time internet linked to 448.57500 (WZ0N) at Hartsel, CO .",CCARC,2017-07-05,,25,285,,Park County Radio Club (PCRC),,Wed at 19:30.,,,,,,,45835,,,,,,,,,,,,,,,,,,,,,,,,,,,,,,,,,,,,,,,,,,,,,,,,,,,,,,,,,,
448.625,-5,100,W0TX,"Golden, Centennial Cone",CO,OPEN,,,136.87,ESE,,08,112,39.75249863,-105.35800171,448.625,443.625,100,100,Jefferson,DM79HS,On-Air,Denver Radio Club,,"Full-time to 145.49000 (W0TX) at Idaho Springs, Centennial Cone, CO .",CCARC,2017-03-11,,E-power.,Denver metro area.,,DRC Repeaters,,DRC: Sun at 20:30.,,,,,,,,,,,,,,,,,,,,,,,,,,,,,,,,,,,,,,,,,,,,,,,,,,,,,,,,,,,,,,,,,
448.85,-5,88.5,K0IBM,"Golden, Guy Hill",CO,OPEN,,,138.13,ESE,,08,136,39.77719879,-105.32900238,448.85,443.85,88.5,88.5,Jefferson,DM79IS,On-Air,Aurora Repeater Assoc,,,CCARC,2016-01-17,,e-power.,"Denver metro, central front range",,ARA Repeaters,,ARA: Wed at 20:00.,,,,,,,,,,,,,,,,,,,,,,,,,,,,,,,,,,,,,,,,,,,,,,,,,,,,,,,,,,,,,,,,,
224,-1.6,103.5,N0MHU,"Golden, Guy Hill",CO,OPEN,,,138.13,ESE,,08,86,39.77719879,-105.32900238,224,222.4,103.5,103.5,Jefferson,,On-Air,Rocky Mountain Radio League,,,CCARC,2017-03-11,,8,,,Repeater,,,,,,,,,,,,,,,,,,,,,,,,,,,,,,,,,,,,,,,,,,,,,,,,,,,,,,,,,,,,,,,,,,,
147.15,0.6,100,W0CBI,"Golden, Guy Hill",CO,OPEN,,,138.13,ESE,,08,133,39.77719879,-105.32900238,147.15,147.75,100,100,Jefferson,DM79IS,On-Air,Aurora Repeater Assoc (ARA),,"Linkable to 224.74000 (N0POH) at Golden, Guy Hill, CO .",CCARC,2016-01-17,,e-power,"Denver metro, central front range",,ARA Repeaters,,ARA: Wed at 20:00.,,,,,,,,,,,,,,,,,,,,,,,,,,,,,,,,,,,,,,,,,,,,,,,,,,,,,,,,,,,,,,,,,
449.75,-5,103.5,KI0GO,"Golden, Guy Hill",CO,OPEN,,,138.18,ESE,,08,265,39.77719879,-105.32800293,449.75,444.75,103.5,103.5,Jefferson,,On-Air,Rocky Mtn Radio League,,,CCARC,2016-12-23,,8,,,Repeater,,,,,,,,,,,,,,,,,,,,,,,,,,,,,,,,,,,,,,,,,,,,,,,,,,,,,,,,,,,,,,,,,,,
224.74,-1.6,88.5,N0POH,"Golden, Guy Hill",CO,OPEN,,,138.18,ESE,,08,134,39.77719879,-105.32800293,224.74,223.14,88.5,88.5,Jefferson,,On-Air,Aurora Repeater Assoc,,,CCARC,2016-01-17,,e-power,,,ARA Repeaters,,ARA: Wed at 2000.,,,,,,,,,,,,,,,,,,,,,,,,,,,,,,,,,,,,,,,,,,,,,,,,,,,,,,,,,,,,,,,,,
145.22,-0.6,103.5,WT0C,"Golden, Guy Hill",CO,OPEN,,,138.18,ESE,,08,71,39.77719879,-105.32800293,145.22,144.62,103.5,103.5,Jefferson,,On-Air,Rocky Mtn Radio League,,,CCARC,2016-12-23,,8,Wide area.,,Repeater,Talk-Group of $FFFF.,,,,,,,,,,,,,,,,,,,,Yes; analog capable.,,,,,,,,,,,,yes,293,yes,,,,,,,,,,,,,,,,,,,,,,,,,,,,,,,,
146.7,-0.6,100,W0DK,"Boulder, Table Mountain",CO,OPEN,,,139.46,ESE,,08,14,39.97750092,-105.27899933,146.7,146.1,100,,Boulder,,On-Air,Boulder Co ARC,,,CCARC,2013-03-17,,6,"Wyoming border in the north, to Monument Hill (near Colorado Springs) in the south. Coverage is primarily to the east of the Rockies Front Range, as the repeater signal is blocked to the west by mountain peaks with altitudes of over 14,000 feet.",,BARC Repeaters,,,,,,,,,,,,,,,,,,,,,,,,,,,,,,,,,,,,,,,,,,,,,,,,,,,,,,,,,,,,,,,,,,,
146.61,-0.6,100,W0DK,Boulder,CO,OPEN,I,,139.67,ESE,,08,13,39.97829819,-105.27500153,146.61,146.01,100,,Boulder,,On-Air,Boulder Amateur Radio Club,,,CCARC,2019-08-23,,,,,,,,,,,,,7007,,,,,,,,,,,,,,,,,,,,,,,,,,,,,,,,,,,,,,,,,,,,,,,,,,,,,,,,,,,
448.9,-5,100,W0DK,"Boulder, Table Mesa",CO,OPEN,,,139.67,ESE,,08,10,39.97800064,-105.27500153,448.9,443.9,100,,Boulder,,On-Air,Boulder ARC,,,CCARC,2013-03-17,,6,"Wyoming border in the north, to Monument Hill in the south, near Colorado Springs. Its coverage is primarily to the east of the Front Range of the Rockies as the repeater signal is blocked to the west by the even higher Rocky Mountain peaks with altitudes of over 14,000 feet.",,,,,,,,,,,,,,,,,,,,,,,,,,,,,,,,,,,,,,,,,,,,,,,,,,,,,,,,,,,,,,,,,,,,,
423,820,ATV,W0BTV,Boulder,CO,OPEN,,,139.7,ESE,,08,18534,39.97848511,-105.27445221,423,1243,ATV,,Boulder,,On-Air,BATVC,ATN,,,2020-02-25,,"dual-mode, NTSC analog &amp; DVB-T digital ATV","Wide Area, WY border to DIA to SE Denver",,https://kh6htv.com/,,"ATV, Thurs, 3pm local",,,,,,,,,,,,,,,,,,,,,,,,,,,,,,,,,,,,,,,,,,,,,,,,,,,,,,,,,,,,,,,,,
446.8625,-5,,KC0DS,Boulder,CO,OPEN,,S,139.8,ESE,,08,8186,40.01499939,-105.27100372,446.8625,441.8625,,,Boulder,,On-Air,Boulder County ARES,,,CCARC,2017-03-11,,,,,,,,,,,,,,,,yes,KC0DS (B),jfindu lookup / dstar-users lookup,,,,,,,,,,,,,,,,,,,,,,,,,,,,,,,,,,,,,,,,,,,,,,,,,,,,,,
446.8,-5,CC,N0SZ,"Boulder, Mount Thorodin",CO,OPEN,,D,139.8,ESE,,08,8185,40.01499939,-105.27100372,446.8,441.8,,,Boulder,,On-Air,Rocky Mountain Ham Radio,Rocky Mountain Ham Radio,Full-time to the Colorado TRBO System .,CCARC,2019-11-27,,,Wide area.,,Rocky Mountain Ham Radio,See website for complete information regarding timeslot/colorcode/talkgroup programming.,,yes,7,310800,RMHR c Record retrieved from radioid.net,,,,,,,,,,,,,,,,,,,,,,,,,,,,,,,,,,,,,,,,,,,,,,,,,,,,,,,,,,,,,
1299.5,-20,,W0DK,Boulder,CO,OPEN,,S,139.8,ESE,,08,8221,40.01499939,-105.27100372,1299.5,1279.5,,,Boulder,,On-Air,Boulder County ARES,,,CCARC,2012-11-12,,E-power.,,,,,,,,,,,,,,yes,W0DK (A) DVAP 24/7,jfindu lookup / dstar-users lookup,,,,,,,,,,,,,,,,,,,,,,,,,,,,,,,,,,,,,,,,,,,,,,,,,,,,,,
147.27,0.6,127.3,KB5ITS,"Ouray, Engineer Mountain",CO,OPEN,,,139.82,S,,08,16604,38.02280045,-107.67099762,147.27,147.87,127.3,,Ouray,,On-Air,,,,CCARC,2018-01-15,,,,,http://www.sjcham.com,,,,,,,,,,,,,,,,,,,,,,,,,,,,,,,,,,,,,,,,,,,,,,,,,,,,,,,,,,,,,,,,,,,
449.4,-5,91.5,K0DK,Boulder,CO,OPEN,,,139.85,ESE,,08,21,40.01499939,-105.26999664,449.4,444.4,91.5,,Boulder,,Off-Air,BARC,,,CCARC,2013-01-08,,2,,,http://www.ked-wireless.com/products1.htm,,,,,,,,,,,,,,,,,,,,,,,,,,,,,,,,,,,,,,,,,,,,,,,,,,,,,,,,,,,,,,,,,,,
449.55,-5,100,W0IA,Boulder,CO,OPEN,E,,139.85,ESE,ON - IDLE,08,11,40.01499939,-105.26999664,449.55,444.55,100,,Boulder,,On-Air,Rocky Mtn VHF Soc,,"Full-time to 224.02000 (W0IA) at Boulder, Lee Hill, CO .",CCARC,2017-03-11,,8,Denver metro area.,217336,,,,,,,,,,,,,,,,,,,,,,,,,,,,,,,,,,,,,,,,,,,,,,,,,,,,,,,,,,,,,,,,,,,,
145.34,-0.6,103.5,KE4GUQ,Evergreen,CO,OPEN,I,,140.54,ESE,,08,73,39.63330078,-105.31700134,145.34,144.74,103.5,127.3,Jefferson,,On-Air,Rocky Mtn Radio League,,,CCARC,2019-08-15,,E-power.,Wide area.,,Repeater,,,,,,,,3350,,,,,,,,,,,,,,,,,,,,,,,,,,,,,,,,,,,,,,,,,,,,,,,,,,,,,,,,,,,
145.175,-0.6,CC,N0SZ,"Evergreen, Squaw Mountain",CO,OPEN,,D,140.54,ESE,,08,10932,39.63330078,-105.31700134,145.175,144.575,,,Clear Creek,DM79IP,On-Air,Rocky Mountain Ham Radio,,,CCARC,2019-11-27,,700,,,Rocky Mountain Ham Radio,Voice ID is required for data/GPS/text on TG 705,,yes,7,310810,RMHR c Record retrieved from radioid.net,,,,,,,,,,,,,,,,,,,,,,,,,,,,,,,,,,,,,,,,,,,,,,,,,,,,,,,,,,,,,
147.12,0.6,88.5,N0ARA,"Critchell, Critchell Mountain",CO,OPEN,,,140.66,SE,,08,59,39.51480103,-105.35299683,147.12,147.72,88.5,88.5,Jefferson,DM79HM,On-Air,Aurora Repeater Association,,,CCARC,2016-01-17,,E-power.,Denver metro and east.,,http://www.n0ara.org,,,,,,,,,,,,,,,,,,,,,,,,,,,,,,,,,,,,,,,,,,,,,,,,,,,,,,,,,,,,,,,,,,,
146.73,-0.6,91.5,K0DK,Boulder,CO,OPEN,E,,141.23,ESE,Node Offline,08,15,40.05709839,-105.24299622,146.73,146.13,91.5,91.5,Boulder,DN70jb,Off-Air,BARC,,,CCARC,2017-05-02,,12,Local,115482,http://www.ked-wireless.com/products1.htm,,,,,,,,,,,,,,,,,,,,,,,,,,,,,,,,,,,,,,,,,,,,,,,,,,,,,,,,,,,,,,,,,,,
449.7,-5,107.2,KB0YNA,"Telluride, Gray Head",CO,OPEN,I,,141.44,S,,08,254,37.99100113,-107.97200012,449.7,444.7,107.2,107.2,San Miguel,DM67AX,On-Air,Grand Mesa Repeater Association ( GMRA ),,Full-time to the GMRA Open System .,CCARC,2017-12-07,,E-power.,Wide Area via links - Western Colorado - Eastern Utah,,,Closed IRLP out - Ask for a control Op,RACES: Wed at 19:30.,,,,,,3710,,,,,,,,,,,,,,,,,,,,,,,,,,,,,,,,,,,,,,,,,,,,,,,,,,,,,,,,,,,
144.635,0.6,100,WY7BV,"Mountain View, Hickey Mtn",WY,OPEN,,,141.58,WNW,,56,14219,41.08269882,-110.23300171,144.635,145.235,100,,Uinta,,Off-Air,Bridger Valley Amateur Radio Club,,,,2018-05-28,,,I-80,,,,,,,,,,,,,,,,,,,,,,,,,,,,,,,,,,,,,,,,,,,,,,,,,,,,,,,,,,,,,,,,,,,,,
927.875,-25.9,,KI0HC,"Fort Collins, Buckhorn Mountain",CO,OPEN,,,141.92,E,,08,18424,40.61669922,-105.32800293,927.875,902.025,,,Larimer,,On-Air,RM Ham,,Full-time to the The 900 P25 Network System .,CCARC,2020-01-01,,,"Wide area coverage, I 25 from Cheyenne south to MM 20 just north of Trinidad. I 76 East to MM 100. I 70 from Idaho Springs to Genoa. Highway 24 from the Colorado Springs to Limon. Highway 24 west of Colorado Springs is spotty to Hartsel. US 50 from Canon City to Las Animas. Salida south to the San Luis Valley to Antonito. Salida North to just south of Leadville. Repeater Coverage Map",,,,,,,,,,,,,,,,,,,,,,,,,,,,,,,,,,,yes,293,yes,,,,,,,,,,,,,,,,,,,,,,,,,,,,,,,,
145.3875,-0.6,,KC0DS,Boulder,CO,OPEN,,S,141.93,ESE,,08,8171,40.03720093,-105.23000336,145.3875,144.7875,,,Boulder,,On-Air,Boulder County ARES,,,CCARC,2012-11-12,,E-power.,20,,http://bouldercountyares.org/technical/d-star,,,,,,,,,,,yes,KC0DS (C),jfindu lookup / dstar-users lookup,,,,,,,,,,,,,,,,,,,,,,,,,,,,,,,,,,,,,,,,,,,,,,,,,,,,,,
1283.8625,-20,,KC0DS,Boulder,CO,OPEN,,S,141.93,ESE,,08,8220,40.03720093,-105.23000336,1283.8625,1263.8625,,,Boulder,DN70JA,On-Air,Boulder County ARES,,,CCARC,2013-12-21,,E-power.,20,,,,,,,,,,,,,yes,KC0DS (A) Repeater,jfindu lookup / dstar-users lookup,,,,,,,,,,,,,,,,,,,,,,,,,,,,,,,,,,,,,,,,,,,,,,,,,,,,,,
445.2,-5,CC,N0SZ,"Fort Collins, Buckhorn Mountain",CO,OPEN,,D,141.98,E,,08,18418,40.61700058,-105.32700348,445.2,440.2,,,Larimer,,On-Air,RMHAM,,,,2019-12-28,,,,,https://www.rmham.org/wordpress/dmr-radio-site-information/,,Red Cross Net on Wide - Third Thursday of the month at 1900 Tech Net on Wide - First Saturday of the month at 1900,yes,7,,c Record retrieved from radioid.net,,,,,,,,,,,,,,,,,,,,,,,,,,,,,,,,,,,,,,,,,,,,,,,,,,,,,,,,,,,,,
146.625,-0.6,100,W0UPS,"Fort Collins, Buckhorn Mountain",CO,OPEN,,,141.98,E,,08,246,40.61700058,-105.32700348,146.625,146.025,100,100,Larimer,DN70IO,On-Air,Northern Colorado ARC,,"Linkable to 146.85000 (W0UPS) at Greeley, UNC, CO . Linkable to 224.84000 (W0UPS) at Fort Collins, Buckhorn Mountain, CO .",CCARC,2017-03-11,,E-power.,Wide area: Northern front range.,,,,,,,,,,,,,,,,,,,,,,,,,,,,,,,,,,,,,,,,,,,,,,,,,,,,,,,,,,,,,,,,,,,,,
224.84,-1.6,100,W0UPS,"Fort Collins, Buckhorn Mountain",CO,OPEN,,,141.98,E,,08,3660,40.61700058,-105.32700348,224.84,223.24,100,100,Larimer,,Off-Air,Northern Colorado ARC,,"Full-time to 447.70000 (W0UPS) at Fort Collins, Buckhorn Mountain, CO .",,2019-08-23,,"E-power, 25 watts.","Wide Area: Northern CO Front Range and into Cheyenne - Laramie, WY",,,,,,,,,,,,,,,,,,,,,,,,,,,,,,,,,,,,,,,,,,,,,,,,,,,,,,,,,,,,,,,,,,,,,
447.7,-5,100,W0UPS,"Fort Collins, Buckhorn Mountain",CO,OPEN,,,142.02,E,,08,5853,40.61109924,-105.3239975,447.7,442.7,100,100,Larimer,,On-Air,Northern Colorado Amateur Radio Club,,"Linkable to 146.85000 (W0UPS) at Greeley, UNC, CO . Linkable to 146.62500 (W0UPS) at Fort Collins, Buckhorn Mountain, CO . Full-time to 224.84000 (W0UPS) at Fort Collins, Buckhorn Mountain, CO .",,2014-09-02,,,Wide Area Coverage,,http://ncarc.net/,,,,,,,,,,,,,,,,,,,,,,,,,,,,,,,,,,,,,,,,,,,,,,,,,,,,,,,,,,,,,,,,,,,
147.135,-0.6,123,KB5ITS,"Lake City, Hill 71",CO,OPEN,,,142.38,SSE,,08,16607,38.02999878,-107.31500244,147.135,146.535,123,,Hinsdale,,On-Air,,,,CCARC,2018-01-15,,E-power (solar),,,http://www.sjcham.com,,,,,,,,,,,,,,,,,,,,,,,,,,,,,,,,,,,,,,,,,,,,,,,,,,,,,,,,,,,,,,,,,,,
1287.9,-20,CSQ,W0CRA,"Conifer, Conifer Mountain",CO,OPEN,,,143.01,SE,,08,103,39.52109909,-105.30500031,1287.9,1267.9,CSQ,,Jefferson,,Off-Air,Colorado Repeater Association (CRA),,,CCARC,2017-10-07,,,Fort Collins to Colorado Springs.,,,,,,,,,,,,,,,,,,,,,,,,,,,,,,,,,,,,,,,,,,,,,,,,,,,,,,,,,,,,,,,,,,,,,
449.625,-5,141.3,KE0VH,"Golden, Lookout Mountain",CO,OPEN,,Y,143.32,ESE,,08,139,39.73300171,-105.23899841,449.625,444.625,141.3,141.3,Jefferson,DM79JR,On-Air,,,,CCARC,2019-06-19,,E-power,,,,,,,,,,,,,,,,,,,,,,yes,Open ↑ / Open ↓,Yes; analog capable.,,,,,,,,,,,,,,,,,,,,,,,,,,,,,,,,,,,,,,,,,,,,,,
927.975,-25.9,67,W0SKY,"Golden, Lookout Mountain",CO,OPEN,A,,143.43,ESE,,08,18156,39.73329926,-105.23699951,927.975,902.0375,67,67,Jefferson,,On-Air,,,,CCARC,2020-01-01,,,"Denver, Golden",,http://www.w0sky.com,,,,,,,,,40195,Standard AllStar,,,,,,,,,,,,,,,,,,,,,,,,,,,,,,,,,,,,,,,,,,,,,,,,,,,,,,,,,
145.37,-0.6,CC,N0SZ,"Golden, Lookout Mountain",CO,OPEN,,D,143.66,ESE,,08,10939,39.73070145,-105.23300171,145.37,144.77,,,Jefferson,DM79JR,On-Air,Rocky Mountain Ham Radio,,,CCARC,2019-11-27,,700,,,Rocky Mountain Ham Radio,See the website for programming information. Voice ID is required for data/GPS/text on TG 705,,yes,7,310808,RMHR c Record retrieved from radioid.net,,,,,,,,,,,,,,,,,,,,,,,,,,,,,,,,,,,,,,,,,,,,,,,,,,,,,,,,,,,,,
145.25,-0.6,,W0CDS,"Golden, Lookout Mountain",CO,OPEN,,S,143.67,ESE,,08,3739,39.73049927,-105.23300171,145.25,144.65,,,Jefferson,DM79JR,On-Air,Colorado D-Star,,,CCARC,2014-01-03,,,,,Colorado D-Star,,,,,,,,,,,yes,W0CDS (C) Repeater,jfindu lookup / dstar-users lookup,,,,,,,,,,,,,,,,,,,,,,,,,,,,,,,,,,,,,,,,,,,,,,,,,,,,,,
446.9625,-5,,W0CDS,"Golden, Lookout Mountain",CO,OPEN,,S,143.67,ESE,,08,2769,39.73049927,-105.23300171,446.9625,441.9625,,,Jefferson,DM79JR,On-Air,Colorado D-Star,,,CCARC,2017-03-11,,,,,Colorado D-Star,,,,,,,,,,,yes,W0CDS (B) Repeater,jfindu lookup / dstar-users lookup,,,,,,,,,,,,,,,,,,,,,,,,,,,,,,,,,,,,,,,,,,,,,,,,,,,,,,
1283.9625,-20,,W0CDS,"Golden, Lookout Mountain",CO,OPEN,,S,143.67,ESE,,08,3751,39.73049927,-105.23300171,1283.9625,1263.9625,,,Jefferson,DM79JR,On-Air,Colorado D-Star,,,CCARC,2014-01-03,,,,,Colorado D-Star,,,,,,,,,,,yes,W0CDS (A) Repeater,jfindu lookup / dstar-users lookup,,,,,,,,,,,,,,,,,,,,,,,,,,,,,,,,,,,,,,,,,,,,,,,,,,,,,,
1299.9,0,,W0CDS,"Golden, Lookout Mountain",CO,OPEN,,S,143.67,ESE,,08,8222,39.73049927,-105.23300171,1299.9,1299.9,,,Jefferson,,On-Air,Colorado D-Star,,,,2014-01-03,,,,,Colorado D-Star,,,,,,,,,,,yes,W0CDS (A) DVAP 24/7,jfindu lookup / dstar-users lookup,,,,,,,,,,,,,,,,,,,,,,,,,,,,,,,,,,,,,,,,,,,,,,,,,,,,,,
446.8375,-5,CC,WA2YZT,"Golden, Lookout",CO,OPEN,,D,143.72,ESE,,08,3753,39.73049927,-105.23200226,446.8375,441.8375,,,Jefferson,DM79JR,On-Air,WA2YZT,,Full-time to the Colorado TRBO System .,CCARC,2019-11-27,,200,,,,See website for more info on CC/TS/TG programming. www.rmham.org,,yes,7,310802,RMHR c Record retrieved from radioid.net,,,,,,,,,,,,,,,,,,,,,,,,,,,,,,,,,,,,,,,,,,,,,,,,,,,,,,,,,,,,,
446.975,-5,CC,KB0VGD,"Golden, Table Mountain",CO,OPEN,,D,144,ESE,"KB0VGD North Table Mtn. Golden Wide area coverage. Please use ONLY TG 310811, TG 3171, TG 3108, and TG 2 (Local 2) on Time Slot 2 (TS2). ALL OTHER TG connections will be directed to Time Slot 1 (TS1).",08,14273,39.7845993,-105.21600342,446.975,441.975,,,Jefferson,,On-Air,W0DMR,,,,2019-11-27,,,Denver Metro Area,,http://www.w0dmr.org/,,"Tac 310 Net, Sundays 18:00 Mountain Time, TS1, TG 310.",yes,2,310811,NoCo c Record retrieved from radioid.net,,,,"TS 1, CC 2: TG 3171 - Northern Colorado Network, TG 3100 - DCI Bridge, TG 1776 - USA Network, TG 310 - Tac 310. TS 2, CC 2: TG 2 - Local",,,,,,,,,,,,,,,,,,,,,,,,,,,,,,,,,,,,,,,,,,,,,,,,,,,,,,,,,
448.125,-5,107.2,N0PYY,Golden,CO,OPEN,,,144.03,ESE,,08,143,39.75559998,-105.22100067,448.125,443.125,107.2,,Jefferson,,On-Air,Denver PD EEB,,,CCARC,2014-04-28,,,,,,,,,,,,,,,,,,,,,,,,,,,,,,,,,,,,,,,,,,,,,,,,,,,,,,,,,,,,,,,,,,,,,,,,
927.7875,-25,156.7,N0PYY,Golden,CO,OPEN,,,144.03,ESE,,08,7170,39.75550079,-105.22100067,927.7875,902.7875,156.7,,Jefferson,,On-Air,N0PYY,,,,2017-12-24,,,Golden and Denver.,,,,,,,,,,,,,,,,,,,,,,,,,,,,,,,,,,,,,,,,,,,,,,,,,,,,,,,,,,,,,,,,,,,,,
448.975,-5,123,W0GV,Golden,CO,OPEN,A,,144.03,ESE,,08,137,39.75559998,-105.22100067,448.975,443.975,123,,Jefferson,,On-Air,FRG,,,CCARC,2019-09-06,,Linkable VHF/UHF Remote Base,Wide area.,,,,,,,,,,,42845,,,,,,,,,,,,,,,,,,,,,,,,,,,,,,,,,,,,,,,,,,,,,,,,,,,,,,,,,,
146.685,-0.6,107.2,NX0G,"Lake George, Badger Mountain",CO,OPEN,,,144.96,SE,,08,169,39.04940033,-105.51300049,146.685,146.085,107.2,107.2,Park,DM79FB,On-Air,Mountain ARC (MARC),,"Full-time to 146.82000 (NX0G) at Woodland Park, CO . Full-time to 448.65000 (NX0G) at Woodland Park, CO . Full-time to 447.47500 (NX0G) at Colorado Springs, CO . Full-time to 147.01500 (NX0G) at Cripple Creek, CO .",CCARC,2016-11-17,,"Closed autopatch, e-power.",,,,,MARC/PCRC: Tue at 19:30.,,,,,,,,Autopatch: 911,,,,,,,,,,,,,,,,,,,,,,,,,,,,,,,,,,,,,,,,,,,,,,,,,,,,,,,,,
147.36,0.6,107.2,KC0CVU,"Lake George, Badger Mountain",CO,OPEN,I,,145.02,SE,,08,170,39.0489006,-105.51200104,147.36,147.96,107.2,107.2,Park,DM79FB,On-Air,,,,CCARC,2018-01-15,,E-power.,Wide area.,,CMRG Repeaters,,,,,,,,3854,,,,,,,,,,,,,,,,,,,,,,,,,,,,,,,,,,,,,,,,,,,,,,,,,,,,,,,,,,,
53.17,-0.5,107.2,N6LXX,"Morrison, Mt. Morrison",CO,OPEN,A,,145.14,ESE,,08,10514,39.67340088,-105.21800232,53.17,52.67,107.2,,Jefferson,,On-Air,N6LXX,N6LXX,Full-time to the N6LXX System .,CCARC,2019-03-25,,,"I-70,I-76,I-25,I-225",,,,,,,,,,,29883,,,,,,,,,,,,,,,,,,,,,,,,,,,,,,,,,,,,,,,,,,,,,,,,,,,,,,,,,,
447.875,-5,107.2,N6LXX,"Morrison, Mt. Morrison",CO,OPEN,A,,145.14,ESE,,08,10513,39.67340088,-105.21800232,447.875,442.875,107.2,107.2,Jefferson,,On-Air,N6LXX,N6LXX,Full-time to the N6LXX System .,CCARC,2017-03-09,,,"I-70,I-76,I-25,I-225",,,,,,,,,,,29913,,,,,,,,,,,,,,,,,,,,,,,,,,,,,,,,,,,,,,,,,,,,,,,,,,,,,,,,,,
146.76,-0.6,100,W0IA,"Boulder, Gunbarrel Hill",CO,OPEN,,,145.78,ESE,,08,16,40.05559921,-105.15699768,146.76,146.16,100,,Boulder,DN70KB,On-Air,Rocky Mtn VHF Soc,Boulder County ARES,,CCARC,2017-03-11,,5,Wide area.,,,ARES primary repeater. Voting Receivers: RX Location Tone Pitch PL Gunbarrel single beep low 100.0 Lousville single beep low 100.0 Lyons double beep high followed by medium 100.0 Louisville #2 double beep high followed by low 100.0,,,,,,,,,,,,,,,,,,,,,,,,,,,,,,,,,,,Tone,single beep,single beep,double beep,double beep,,,,,,,,,,,,,,,,,,,,,,,,,,,
446.975,-5,,KD0QPG,"Salida, Methodist Mountain",CO,OPEN,,S,145.8,SE,,08,9844,38.53469849,-105.99900055,446.975,441.975,,,Chaffee,,On-Air,Crestone Amateur Radio Emergency Services,Crestone Amateur Radio Emergency Services,,CCARC,2013-07-06,,,,,KD0QPG,,,,,,,,,,,yes,KD0QPG (B) Gateway Repeater,jfindu lookup / dstar-users lookup,,,,,,,,,,,,,,,,,,,,,,,,,,,,,,,,,,,,,,,,,,,,,,,,,,,,,,
446.8125,-5,CC,N0SZ,"Salida, Methodist Mountain",CO,OPEN,,D,145.8,SE,,08,12697,38.53469849,-105.99900055,446.8125,441.8125,,,Chaffee,,On-Air,RMHAM,,,,2019-11-27,,,,,,,,yes,7,310825,RMHR c Record retrieved from radioid.net,,,,,,,,,"Open Talkgroup View Assignment TS TG Access Rocky Mountain Wide 1 700 Southern Colorado 2 719 function myFunction(id) { var x = document.getElementById(id); if (x.className.indexOf(""w3-show"") == -1) { x.className += "" w3-show""; } else { x.className = x.className.replace("" w3-show"", """"); } }",2,,,,,,,,,,,,,,1,,,,,,,,,,,,,,,,,,,,,,,,,,,,,,,,,,,,,
927.9375,-25.9,,KI0HC,"Indian Hills, Chief Mtn",CO,OPEN,,,146.6,ESE,,08,17457,39.59999847,-105.20999908,927.9375,902.025,,,Jefferson,,On-Air,,,Full-time to the The 900 P25 Network System .,CCARC,2020-01-01,,,"Wide area coverage, I 25 from Cheyenne south to MM 20 just north of Trinidad. I 76 East to MM 100. I 70 from Idaho Springs to Genoa. Highway 24 from the Colorado Springs to Limon. Highway 24 west of Colorado Springs is spotty to Hartsel. US 50 from Canon City to Las Animas. Salida south to the San Luis Valley to Antonito. Salida North to just south of Leadville. Repeater Coverage Map",,,,,,,,,,,,,,,,,,,,,,,,,,,,,,,,,,,yes,293,yes,,,,,,,,,,,,,,,,,,,,,,,,,,,,,,,,
53.09,-1.7,107.2,W0TX,"Lakewood, Green Mountain",CO,OPEN,,,146.89,ESE,,08,105,39.70080185,-105.1780014,53.09,51.39,107.2,,Jefferson,DM79JQ,On-Air,Denver Radio Club,,,CCARC,2017-03-11,,E-power.,Metro Denver area.,,DRC Repeaters,,,,,,,,,,,,,,,,,,,,,,,,,,,,,,,,,,,,,,,,,,,,,,,,,,,,,,,,,,,,,,,,,,,
145.115,-0.6,100,W0UPS,"Fort Collins, Horsetooth Mountain",CO,OPEN,E,,147.34,E,ON - IDLE,08,123,40.53969955,-105.19599915,145.115,144.515,100,100,Larimer,DN70JM,On-Air,Northern Colorado ARC,,,CCARC,2016-10-25,,7,Wide area.,4236,,,,,,,,,,,,,,,,,,,,,,,,,,,,,,,,,,,,,,,,,,,,,,,,,,,,,,,,,,,,,,,,,,,,
224.52,-1.6,100,W0UPS,"Fort Collins, Horsetooth Mountain",CO,OPEN,,,147.34,E,,08,275,40.53969955,-105.19599915,224.52,222.92,100,100,Larimer,,Off-Air,Northern Colorado ARC,,,CCARC,2018-03-21,,E-power.,,,,,,,,,,,,,,,,,,,,,,,,,,,,,,,,,,,,,,,,,,,,,,,,,,,,,,,,,,,,,,,,,,,,,,
447.275,-5,100,W0UPS,"Fort Collins, Horsetooth Mountain",CO,OPEN,,,147.34,E,,08,126,40.53969955,-105.19599915,447.275,442.275,100,100,Larimer,,On-Air,Northern Colorado ARC,,,CCARC,2020-01-23,,"Closed autopatch, e-power.",Wide area.,,,,,,,,,,,,,,,,,,,,,,,,,,,,,,,,,,,,,,,,,,,,,,,,,,,,,,,,,,,,,,,,,,,,,
446.75,-5,CC,K7PFJ,"Fort Collins, Horsetooth Mountain",CO,OPEN,,D,148.2,E,,08,8715,40.53879929,-105.17900085,446.75,441.75,,,Larimer,,Off-Air,Rocky Mountain Ham Radio,,Full-time to the Colorado TRBO System .,CCARC,2019-12-09,,,,,http://www.rmham.org,See website for complete info on color codes/time slot assignment.,,yes,7,310814,RMHR c Record retrieved from radioid.net,,,,,,,,,"Open Talkgroup View Assignment TS TG Access Rocky Mountain Wide 1 700 Northern Colorado Regional 2 721 function myFunction(id) { var x = document.getElementById(id); if (x.className.indexOf(""w3-show"") == -1) { x.className += "" w3-show""; } else { x.className = x.className.replace("" w3-show"", """"); } }",,,2,,,,,,,,,,,,1,,,,,,,,,,,,,,,,,,,,,,,,,,,,,,,,,,,,,
145.265,-0.6,CC,KB0VGD,"Fort Collins, Horsetooth Mountain",CO,OPEN,,D,148.2,E,"KB0VGD Marcos 2M Horsetooth Horsetooth Mtn VHF, Wide area coverage. Please use ONLY TG 310831, TG 3171, TG 3108, and TG 2 (Local 2) on Time Slot 2 (TS2). ALL OTHER TG connections will be directed to Time Slot 1 (TS1).",08,14274,40.53879929,-105.17900085,145.265,144.665,,,Larimer,,On-Air,W0DMR - NoCo C-bridge Network,Brandmeister Network,,CCARC,2019-11-27,,,Northern Colorado Front Range Wide Area coverage.,,http://www.w0dmr.org/,"Any additional Brandmeister talk group is available on time slot 1, too many to list here, see website. https://dmrx.net/files/US_BM_User_Guide.pdf",,yes,2,310831,DMR-Plus c Record retrieved from radioid.net,,,,"Repeater ID: 310831, TS 1: TG 91 - World Wide, TG 93 - North America, TG 3100 USA. TS 2: TG 2 - Local, TG 3171 - No. Colorado, TG 3108 Colorado Statewide.",,,,BrandMeister US,"Open Talkgroup View Assignment TS TG Access Worldwide English 1 91 Full-Time North America 1 93 Full-Time DCI Bridge 1 3100 Full-Time Local/Cluster 2 2 Colorado 2 3108 Full-Time N. Colorado 2 3171 Full-Time function myFunction(id) { var x = document.getElementById(id); if (x.className.indexOf(""w3-show"") == -1) { x.className += "" w3-show""; } else { x.className = x.className.replace("" w3-show"", """"); } }",,,,,,,,,,,1,,2,,,,,,,,,,,,,1,1,2,2,,,,,,,,,,,,,,,,,,,,,,,
448.525,-5,151.4,N0EPA,Longmont,CO,OPEN,E,,148.88,ESE,ON - IDLE,08,176,40.16719818,-105.10099792,448.525,443.525,151.4,,Boulder,,On-Air,N0EPA,,,CCARC,2019-06-19,,,,223853,,,,,,,,,,,,,,,,,,,,,,,,,,,,,,,,,,,,,,,,,,,,,,,,,,,,,,,,,,,,,,,,,,,,
147.27,0.6,100,W0ENO,Longmont,CO,OPEN,,,148.88,ESE,,08,175,40.16719818,-105.10099792,147.27,147.87,100,100,Boulder,,On-Air,Longmont ARC (LARC),,"Linkable to 448.80000 (W0ENO) at Longmont, CO .",CCARC,2017-03-11,,"Closed autopatch, e-power, EchoLink.",Wide area: Northern Colorado.,,http://w0eno.org/?q=node/11,,,,,,,,,,,,,,,,,,,,,,,,,,,,,,,,,,,,,,,,,,,,,,,,,,,,,,,,,,,,,,,,,,,
448.8,-5,88.5,W0ENO,Longmont,CO,OPEN,,,148.88,ESE,,08,177,40.16719818,-105.10099792,448.8,443.8,88.5,88.5,Boulder,,On-Air,Longmont ARC,,"Linkable to 147.27000 (W0ENO) at Longmont, CO .",CCARC,2017-03-11,,30,,,,,LARC: Sun at 20:00.,,,,,,,,,,,,,,,,,,,,,,,,,,,,,,,,,,,,,,,,,,,,,,,,,,,,,,,,,,,,,,,,,
147.33,0.6,100,W0TX,"Lakewood, Green Mountain",CO,OPEN,,,148.95,ESE,,08,85,39.68220139,-105.14299774,147.33,147.93,100,,Jefferson,,On-Air,Denver Radio Club,,,CCARC,2017-03-31,,E-power.,Metro Denver and the foothills.,,DRC Repeaters,Not recommeded to use tone squelch on this repeater.,SATERN: Thu at 19:30.,,,,,,,,,,,,,,,,,,,,,,,,,,,,,,,,,,,,,,,,,,,,,,,,,,,,,,,,,,,,,,,,,
224.38,-1.6,100,W0TX,"Lakewood, Green Mountain",CO,OPEN,,,148.95,ESE,,08,267,39.68220139,-105.14299774,224.38,222.78,100,100,Jefferson,,On-Air,Denver Radio Club,,,CCARC,2017-03-11,,,,,DRC Repeaters,,,,,,,,,,,,,,,,,,,,,,,,,,,,,,,,,,,,,,,,,,,,,,,,,,,,,,,,,,,,,,,,,,,
449.775,-5,CSQ,W0TX,"Lakewood, Green Mtn",CO,OPEN,,Y,148.95,ESE,,08,8215,39.68220139,-105.14299774,449.775,444.775,,,Jefferson,DM79KQ,On-Air,Denver Radio Club,,,CCARC,2019-09-06,,Yaesu Digital Only,Metro Denver,,Denver Radio Club,"YSF digital only, no analog FM",,,,,,,,,,,,,,,,,,yes,Open ↑ / Open ↓,,,,,,,,,,,,,,,,,,,,,,,,,,,,,,,,,,,,,,,,,,,,,,,
147.285,0.6,88.5,KB0VJJ,"Salida, Methodist Mountain",CO,OPEN,,,149.14,SE,,08,204,38.45959854,-106.01100159,147.285,147.885,88.5,123,Chaffee,,On-Air,Colorado Connection,,Full-time to the Colorado Connection System .,CCARC,2016-05-23,,11,"Wide area: South Park, Gunnison, Pueblo, and the San Luis Valley south to New Mexico. At extremes, it has been worked from east of Montrose and Blue Mesa Resevoir, on Fremont Pass near Climax, in and around Bailey on U.S. 285, and south toward Trinidad on Interstate 25.",,,,Central Colorado Traffic Net: Daily at 19:30. Colorado Connection Net (All Welcome): Thu at 20:00. Statewide ARES Net: Sun at 20:00.,,,,,,,,,,,,,,,,,,,,,,,,,,,,,,,,,,,,,,,,,,,,,,,,,,,,,,,,,,,,,,,,,
145.295,-0.6,107.2,KC0CVU,"Salida, Methodist Mountain",CO,OPEN,,,149.14,SE,,08,203,38.45959854,-106.01100159,145.295,144.695,107.2,,Chaffee,DM78ik,On-Air,Cheyenne Mtn Repeater Group,,,CCARC,2019-08-15,,,Wide area.,,CMRG Repeaters,,,,,,,,,,,,,,,,,,,,,,,,,,,,,,,,,,,,,,,,,,,,,,,,,,,,,,,,,,,,,,,,,,,
147.195,0.6,100,W0LRA,"Loveland, Namaqua Hill",CO,OPEN,,,149.19,ESE,,08,179,40.39849854,-105.125,147.195,147.795,100,,Larimer,,On-Air,Loveland Repeater Assoc,,,CCARC,2016-08-18,,"Closed autopatch, e-power.",,,,,,,,,,,,,,,,,,,,,,,,,,,,,,,,,,,,,,,,,,,,,,,,,,,,,,,,,,,,,,,,,,,,,,
448.35,-5,225.7,KD0SSP,"Lakewood, Moffat Treatment Plant",CO,OPEN,,Y,149.22,ESE,,08,17349,39.75059891,-105.1230011,448.35,443.35,,,Jefferson,,On-Air,Denver Water Amateur Radio Club (DWARC),,,CCARC,2018-10-02,,,Denver Metro and surrounding,,http://www.DWARC.com,,,,,,,,,,,,,,,,,,,yes,Open ↑ / Open ↓,,,,,,,,,,,,,,,,,,,,,,,,,,,,,,,,,,,,,,,,,,,,,,,
449.65,-5,107.2,KC0CVU,"Salida, Methodist Mountain",CO,OPEN,,,149.23,SE,,08,205,38.45280075,-106.01799774,449.65,444.65,107.2,,Chaffee,DM68XK,On-Air,,,,CCARC,2018-01-15,,E-power.,Wide area.,,CMRG Repeaters,,,,,,,,,,,,,,,,,,,,,,,,,,,,,,,,,,,,,,,,,,,,,,,,,,,,,,,,,,,,,,,,,,,
147.21,0.6,100,KD0SSP,"Lakewood, Moffat Treatment Plant",CO,OPEN,I,,149.23,ESE,,08,9775,39.75049973,-105.1230011,147.21,147.81,100,100,Jefferson,DM79KS,On-Air,Denver Water Amateur Radio Club,,,,2020-01-23,,,,,http://www.dwarc.com,,,,,,,,3241,,,,,,,,,,,,,Yes; analog capable.,,,,,,,,,,,,,,,,,,,,,,,,,,,,,,,,,,,,,,,,,,,,,,
447.825,-5,D073,W0TX,"Lakewood, St Anthony Medical Campus",CO,OPEN,,,149.23,ESE,,08,5805,39.71620178,-105.12999725,447.825,442.825,D073,,Jefferson,DM79KR,On-Air,Denver Radio Club,,,CCARC,2017-03-11,,,,,,Now operating in Narrow Band mode with Digital Code Squelch. Please reset your programing to use: 12.5 KHz. bandwidth (+/- 2.5 KHz. deviation).,,,,,,,,,,,,,,,,,,,,,,,,,,,,,,,,,,,,,,,,,,,,,,,,,,,,,,,,,,,,,,,,,,
449.925,-5,103.5,WZ0N,"Salida, Methodist Mountain",CO,OPEN,,,149.23,SE,,08,3811,38.45280075,-106.01799774,449.925,444.925,103.5,103.5,Chaffee,,On-Air,,Colorado ARES,,CCARC,2013-07-05,,E-power (Bat),"Upper Arkansas and Platte Rivers, and the SLV",,,Identifies with an 'M' following WZ0N callsign which identifies the site as Methodist.,,,,,,,,,,,,,,,,,,,,,,,,,,,,,,,,,,,,,,,,,,,,,,,,,,,,,,,,,,,,,,,,,,
447.5,-5,88.5,N0OWY,"Conifer, Critchell Mountain",CO,OPEN,,,149.45,SE,,08,60,39.47029877,-105.19799805,447.5,442.5,88.5,88.5,Jefferson,DM79JL,On-Air,Aurora Repeater Association,,,CCARC,2014-04-28,,E-power.,Wide area.,,,,,,,,,,,,,,,,,,,,,,,,,,,,,,,,,,,,,,,,,,,,,,,,,,,,,,,,,,,,,,,,,,,,,
1283.55,-20,100,K1TJ,Fort Collins,CO,OPEN,,,149.5,E,,08,3620,40.51530075,-105.14700317,1283.55,1263.55,100,,Larimer,DN70KM,On-Air,K1TJ Repeater System,,,CCARC,2013-01-01,,,Northern Colorado Front Range,,http://www.k1tj.com/,,,,,,,,,,,,,,,,,,,,,,,,,,,,,,,,,,,,,,,,,,,,,,,,,,,,,,,,,,,,,,,,,,,
447.45,-5,123,KC0RBT,Fort Collins,CO,OPEN,E,,149.5,E,ON - IDLE,08,276,40.51530075,-105.14700317,447.45,442.45,123,,Larimer,,On-Air,,,,CCARC,2016-02-01,,,,447450,,,,,,,,,,,,,,,,,,,,,,,,,,,,,,,,,,,,,,,,,,,,,,,,,,,,,,,,,,,,,,,,,,,,
446.7375,-5,CC,N0AOL,Fort Collins,CO,OPEN,,D,149.5,E,,08,8505,40.51530075,-105.14700317,446.7375,441.7375,,,Larimer,DN70KM,On-Air,N0AOL - NoCo C-Bridge Network,,,CCARC,2019-11-27,,DMR-MARC World Wide Network,Wide area: North Front Range.,,http://nocodmr.kt0l.net:8080/nocodmr/documentation.htm,Repeater ID: 310803,"DMR World Wide Net: Sat at 10:00. TS 1 Group Call 1 http://www.dmr-marc.net/ Tac 310 Net: Sun at 18:00, TS 1 Group Call 310 .",yes,2,310803,NoCo c Record retrieved from radioid.net,,,,,,,,,"Open Talkgroup View Assignment TS TG Access Worldwide 1 1 North America 1 3 English 1 13 TAC 310 1 310 Local/Cluster 2 2 N. Colorado 2 3171 function myFunction(id) { var x = document.getElementById(id); if (x.className.indexOf(""w3-show"") == -1) { x.className += "" w3-show""; } else { x.className = x.className.replace("" w3-show"", """"); } }",,,,,,,,,,1,1,1,2,,,,,,,,,,,,,,,,2,1,,,,,,,,,,,,,,,,,,,,,,
448.75,-5,100,N0ELY,Lakewood,CO,OPEN,,,149.73,ESE,,08,8204,39.70460129,-105.1230011,448.75,443.75,100,100,Jefferson,DM79KQ,Off-Air,,N0ELY,,CCARC,2019-08-23,,E-power.,Local.,,,,,,,,,,,,,,,,,,,,,,,,,,,,,,,,,,,,,,,,,,,,,,,,,,,,,,,,,,,,,,,,,,,,,
449.975,-5,100,K0JSC,"Salida, Methodist Mountain",CO,OPEN,EIA,,149.82,SE,ON - IDLE,08,13510,38.44630051,-106.01100159,449.975,444.975,100,100,Chaffee,DM68xk,On-Air,,,Full-time to the The Fun Machine System .,CCARC,2017-03-11,,2,I-25 from Walsenburg to Wyoming and US-50 from La junta to Monarch Pass,363976,K0JSC.COM,Can be linked to various local repeater systems via the remote base. Echolink/IRLP connects restricted. Email me to be added to the authorized list.,APRS Net: Sun at 19:00. Region 5 District 2 ARES Net: Sun at 19:30. Statewide ARES Net: Sun at 20:00. Region 5 District 1 ARES Net: Mon at 19:00. RGARC Net: Wed at 19:00.,,,,,,7301,28368,,,,,,,,,,,,,,,,,,,,,,,,,,,,,,,,,,,,,,,,,,,,,,,,,,,,,,,,,,
927.8625,-25.8,,WA6IFI,"Salida, Methodist Mountain",CO,OPEN,,,149.84,SE,,08,18425,38.44670105,-106.01000214,927.8625,902.025,,,Chaffee,,On-Air,CMRG,,Full-time to the The 900 P25 Network System .,CCARC,2020-01-01,,,"Wide area coverage, I 25 from Cheyenne south to MM 20 just north of Trinidad. I 76 East to MM 100. I 70 from Idaho Springs to Genoa. Highway 24 from the Colorado Springs to Limon. Highway 24 west of Colorado Springs is spotty to Hartsel. US 50 from Canon City to Las Animas. Salida south to the San Luis Valley to Antonito. Salida North to just south of Leadville. Repeater Coverage Map",,,,,,,,,,,,,,,,,,,,,,,,,,,,,,,,,,,yes,,yes,,,,,,,,,,,,,,,,,,,,,,,,,,,,,,,,
448.925,-5,131.8,W0LMA,Broomfield,CO,OPEN,,,149.9,ESE,,08,26,39.92060089,-105.08599854,448.925,443.925,131.8,,Boulder,,Off-Air,W0LMA,,,CCARC,2019-06-19,,,,,,,,,,,,,,,,,,,,,,,,,,,,,,,,,,,,,,,,,,,,,,,,,,,,,,,,,,,,,,,,,,,,,,,,
449.825,-5,103.5,W0WYX,Broomfield,CO,OPEN,,,149.9,ESE,,08,266,39.92060089,-105.08599854,449.825,444.825,103.5,,Boulder,,Off-Air,Rocky Mountain Radio League,,,CCARC,2019-06-19,,6,Along the foothills and into Boulder where the 94 repeater is shadowed.,,Repeater,,Colorado WX: Daily at 06:30. RMRL: Mod at 20:30. Astronomy: Tue at 19:00. Amateur Radio Events: Tue at 20:00.,,,,,,,,,,,,,,,,,,,,,,,,,,,,,,,,,,,,,,,,,,,,,,,,,,,,,,,,,,,,,,,,,
146.82,-0.6,114.8,KC7SNO,"Laramie, Beacon Hill",WY,OPEN,,,150.18,NE,,56,9,41.31140137,-105.59100342,146.82,146.22,114.8,,Albany,,On-Air,Shy-Wy Amateur Radio Club,,,WRCG,2019-06-13,,,Wide area.,,,,Shy-WY ARC: Thu at 19:00.,,,,,,,,,,,,,,,,,,,,,,,,,,,,,,,,,,,,,,,,,,,,,,,,,,,,,,,,,,,,,,,,,
146.61,-0.6,,N7UW,"Laramie, University",WY,OPEN,,Y,150.69,NE,,56,76,41.31480026,-105.58200073,146.61,146.01,,,Albany,DN71FH,On-Air,University ARC,,,WRCG,2017-01-04,,,Laramie Valley 30 mi radius.,,http://www.uwyo.edu/uarc,,,,,,,,,,,,,,,,,,,yes,Open ↑ / Open ↓,Yes; analog capable.,,,,,,,,,,,,,,,,,,,,,,,,,,,,,,,,,,,,,,,,,,,,,,
449.575,-5,100,W0LRA,"Loveland, Namaqua Hill",CO,OPEN,,,151.84,ESE,,08,181,40.39780045,-105.0739975,449.575,444.575,100,,Larimer,,On-Air,Loveland Rptr Assoc,,,CCARC,2018-02-24,,"Closed autopatch, e-power.",,,,,,,,,,,,,,,,,,,,,,,,,,,,,,,,,,,,,,,,,,,,,,,,,,,,,,,,,,,,,,,,,,,,,,
146.88,-0.6,100,N0PUF,"Centennial, Warren Mountain",CO,OPEN,,,152.42,SE,,08,80,39.50419998,-105.12799835,146.88,146.28,100,,Jefferson,,On-Air,Denver Radio League,,,CCARC,2020-03-13,,E-power.,Wide Area,,DRL Repeaters,6,,,,,,,,,,,,,,,,,,,,,,,,,,,,,,,,,,,,,,,,,,,,,,,,,,,,,,,,,,,,,,,,,,
449.6,-5,100,N0PUF,"Centennial, Warren Mountain",CO,OPEN,EI,Y,152.42,SE,Node Offline,08,273,39.50419998,-105.12799835,449.6,444.6,,,Jefferson,,On-Air,Denver Radio League,,,CCARC,2020-03-13,,,,690473,DRL Repeaters,,,,,,,,3345,,,,,,,,,,,yes,Open ↑ / Open ↓,,,,,,,,,,,,,,,,,,,,,,,,,,,,,,,,,,,,,,,,,,,,,,,
447.725,-5,131.8,W7RF,Fort Collins,CO,OPEN,,,152.74,E,,08,8194,40.49599838,-105.07900238,447.725,442.725,131.8,,Larimer,DN70LL,On-Air,W7RF,,,CCARC,2018-05-13,,,,,,,,,,,,,,,,,,,,,,,,,,,,,,,,,,,,,,,,,,,,,,,,,,,,,,,,,,,,,,,,,,,,,,,,
449.3,-5,100,N1UPS,Westminster,CO,OPEN,EI,,153,ESE,ON - In Conference IRLP 3946,08,8208,39.83670044,-105.03700256,449.3,444.3,100,,Adams,,On-Air,N1UPS,,,CCARC,2017-04-24,,,,43699,,,,,,,,,3699,,,,,,,,,,,,,,,,,,,,,,,,,,,,,,,,,,,,,,,,,,,,,,,,,,,,,,,,,,,
446.7625,-5,CC,W0QEY,"Fort Collins, CSU Durward Hall",CO,OPEN,,D,153.2,E,,08,18416,40.57759857,-105.09300232,446.7625,441.7625,,,Larimer,,On-Air,RMHAM,CSUARC,,,2020-02-10,,,,,https://www.rmham.org/wordpress/dmr-radio-site-information/,,Red Cross Net on Wide - Third Thursday of the month at 1900 Tech Net on Wide - First Saturday of the month at 1900,yes,8,,c Record retrieved from radioid.net,,,,,,,,,,,,,,,,,,,,,,,,,,,,,,,,,,,,,,,,,,,,,,,,,,,,,,,,,,,,,
446.7625,-5,CC,W0QEY,"Fort Collins, CSU Durward Hall",CO,OPEN,,D,153.2,E,,08,18417,40.57759857,-105.09300232,446.7625,441.7625,,,Larimer,,On-Air,RMHAM,CSUARC,,,2020-02-10,,,,,https://www.rmham.org/wordpress/dmr-radio-site-information/,,Red Cross Net on Wide - Third Thursday of the month at 1900 Tech Net on Wide - First Saturday of the month at 1900,yes,8,,c Record retrieved from radioid.net,,,,,,,,,,,,,,,,,,,,,,,,,,,,,,,,,,,,,,,,,,,,,,,,,,,,,,,,,,,,,
446.8125,-5,,W0QEY,"Fort Collins, CSU Durward Hall",CO,OPEN,,S,153.2,E,,08,8901,40.57770157,-105.09300232,446.8125,441.8125,,,Larimer,DN70KN,On-Air,W0QEY CSU,,,CCARC,2017-05-31,,D-Star Gateway,Fort Collins Local Area,,,Free Star,,,,,,,,,,yes,W0QEY (B) Repeater,jfindu lookup / dstar-users lookup,,,,,,,,,,,,,,,,,,,,,,,,,,,,,,,,,,,,,,,,,,,,,,,,,,,,,,
449.85,-5,100,W0QEY,"Fort Collins, CSU Durward Hall",CO,OPEN,,,153.78,E,,08,124,40.58530045,-105.08399963,449.85,444.85,100,100,Larimer,,On-Air,CO State Univ ARC,,,CCARC,2012-11-16,,Closed autopatch.,Map,,,,,,,,,,,,,,,,,,,,,,,,,,,,,,,,,,,,,,,,,,,,,,,,,,,,,,,,,,,,,,,,,,,,,
927.95,-25,100,W0QEY,"Fort Collins, CSU Durward Hall",CO,OPEN,,,153.78,E,,08,3592,40.58530045,-105.08399963,927.95,902.95,100,100,Larimer,,On-Air,,,,CCARC,2019-09-01,,,Northern Front Range,,,,,,,,,,,,,,,,,,,,,,,,,,,,,,,,,,,,,,,,,,,,,,,,,,,,,,,,,,,,,,,,,,,,,
147.34,0.6,136.5,KG7DSO,"Vernal, Tabby Mountain",UT,OPEN,,,153.89,W,,49,121,40.35490036,-110.7990036,147.34,147.94,136.5,,Uintah,DN40OI,On-Air,Borderline Amateur Radio Club,Roosevelt Junior High School Amateur Radio Club,"Full-time to 147.10000 (W7BAR) at Vernal, Blue Mountain, UT .",UVHFS,2017-05-14,,,Wide area.,,,9,,,,,,,,,,,,,,,,,,,,,,,,,,,,,,,,,,,,,,,,,,,,,,,,,,,,,,,,,,,,,,,,,,
147.36,0.6,100,W0QEY,"Fort Collins, CSU Durward Hall",CO,OPEN,,,153.91,E,,08,125,40.57080078,-105.07700348,147.36,147.96,100,100,Larimer,,On-Air,CO State Univ ARC,,,CCARC,2017-03-11,,Closed autopatch.,Map,,,,,,,,,,,,,,,,,,,,,,,,,,,,,,,,,,,,,,,,,,,,,,,,,,,,,,,,,,,,,,,,,,,,,
145.325,-0.6,127.3,KB5ITS,"Silverton, Buffalo Boy",CO,OPEN,,,154.36,S,,08,16605,37.81190109,-107.66500092,145.325,144.725,127.3,,San Juan,,On-Air,,,,CCARC,2018-01-15,,Solar powered,,,http://www.sjcham.com,,,,,,,,,,,,,,,,,,,,,,,,,,,,,,,,,,,,,,,,,,,,,,,,,,,,,,,,,,,,,,,,,,,
444,5,67,KB5ITS,"Silverton, Hazelton",CO,OPEN,,,154.36,S,,08,16624,37.81190109,-107.66500092,444,449,67,,San Juan,,On-Air,,,,,2018-08-03,,,,,http://www.sjcham.com,,,,,,,,,,,,,,,,,,,,,,,,,,,,,,,,,,,,,,,,,,,,,,,,,,,,,,,,,,,,,,,,,,,
447.525,-5,127.3,KB5ITS,Silverton,CO,OPEN,,,154.36,S,,08,210,37.81190109,-107.66400146,447.525,442.525,127.3,,San Juan,,On-Air,KB5ITS,,,CCARC,2014-06-30,,E-power.,Wide area.,,,,,,,,,,,,,,,,,,,,,,,,,,,,,,,,,,,,,,,,,,,,,,,,,,,,,,,,,,,,,,,,,,,,,
449.7,-5,107.2,,Lake George,CO,OPEN,,,154.62,SE,,08,8214,38.97969818,-105.35700226,449.7,444.7,107.2,,Park,,,CMRG,,,CCARC,2012-11-12,Unknown,,,,,,,,,,,,,,,,,,,,,,,,,,,,,,,,,,,,,,,,,,,,,,,,,,,,,,,,,,,,,,,,,,,,,,,
448.075,-5,,K7YI,"Price, Cedar Mountain",UT,OPEN,,S,154.93,WSW,,49,4237,39.18500137,-110.60500336,448.075,443.075,,,Carbon,DM49QE,Off-Air,Sinbad Desert Amateur Radio Club,,,,2013-12-07,,,,,,,,,,,,,,,,yes,K7YI (B),jfindu lookup / dstar-users lookup,,,,,,,,,,,,,,,,,,,,,,,,,,,,,,,,,,,,,,,,,,,,,,,,,,,,,,
447.225,-5,CC,WY7EOC,"Laramie, Pilot Hill",WY,CLOSED,,D,155.28,NE,,56,60,41.26660156,-105.43299866,447.225,442.225,,,Albany,DN71GG,On-Air,Laramie County EM,Wyoming DMR Project,,WRCG,2019-12-12,,,Wide area.,,,,,yes,11,315608,WyDMR c Record retrieved from radioid.net,,,,,,,,Wyoming DMR Project,"Open Talkgroup View Assignment TS TG Access Wyoming 1 3156 Full-Time WyLOCAL 2 100 Full-Time function myFunction(id) { var x = document.getElementById(id); if (x.className.indexOf(""w3-show"") == -1) { x.className += "" w3-show""; } else { x.className = x.className.replace("" w3-show"", """"); } }",,,,,,,Wyoming DMR Project,1,2,,,,,,,,,,,,,,,,,,,,,,,,,,,,,,,,,,,,,,,,,,,
147.045,0.6,123,K0ML,Northglenn,CO,OPEN,,,155.31,ESE,,08,185,39.88560104,-104.98699951,147.045,147.645,123,,Adams,,On-Air,Northglenn RA,,,CCARC,2017-04-10,,E-power.,,,,,,,,,,,,,,,,,,,,,,,,,,,,,,,,,,,,,,,,,,,,,,,,,,,,,,,,,,,,,,,,,,,,,,
147.375,0.6,156.7,KB5ITS,"Silverton, Kendall Mountain",CO,OPEN,,,155.82,S,,08,209,37.79330063,-107.6289978,147.375,147.975,156.7,,San Juan,DM67ET,On-Air,,,"Part-time to 146.67000 (K0EP) at Durango, Eagle Pass, CO .",CCARC,2018-01-15,,13,Wide area.,,http://www.sjcham.com,,,,,,,,,,,,,,,,,,,,,,,,,,,,,,,,,,,,,,,,,,,,,,,,,,,,,,,,,,,,,,,,,,,
53.03,-1,,K7UWR,"Laramie, Pilot Hill",WY,OPEN,,,155.94,NE,,56,4,41.30979919,-105.45500183,53.03,52.03,,,Albany,DN71GH,Off-Air,K7UWR,,,,2017-01-04,,8,I-80 from west of Laramie to east of Cheyenne for 25 watt mobiles with 1/4 wave antenna.,,http://www.r-vcr.com/k7uwr/repeater.htm,,,,,,,,,,,,,,,,,,,,,,,,,,,,,,,,,,,,,,,,,,,,,,,,,,,,,,,,,,,,,,,,,,,
448.55,-5,88.5,K7SDC,"Castle Dale, Cedar Mountain",UT,OPEN,I,,155.97,WSW,,49,274,39.1719017,-110.6190033,448.55,443.55,88.5,,Emery,DM49QE,On-Air,N7QLO,,,UVHFS,2014-11-05,,Remote base.,"Wide area: Price on the west to Green River, Utah toward the south, bounded by the Bookcliffs on the north and east.",,,Stand alone.,,,,,,,3280,,,,,,,,,,,,,,,,,,,,,,,,,,,,,,,,,,,,,,,,,,,,,,,,,,,,,,,,,,,
447.125,-5,100,K7YI,"Castle Dale, Cedar Mountain",UT,CLOSED,,,155.97,WSW,,49,74,39.1719017,-110.6190033,447.125,442.125,100,,Emery,DM49QE,,San Rafael Cactus Assoc,Cactus-Intertie,,UVHFS,2008-07-10,Unknown,7,"Wide area: This covers (approximately) from Price on the west to Green River, Utah toward the south, bounded by the Bookcliffs on the north and east.",,,,,,,,,,,,,,,,,,,,,,,,,,,,,,,,,,,,,,,,,,,,,,,,,,,,,,,,,,,,,,,,,,,,,
147.14,0.6,88.5,K7SDC,"Castle Dale, Cedar Mountain",UT,OPEN,EI,,156.03,WSW,ON - IDLE,49,57,39.17150116,-110.62000275,147.14,147.74,88.5,,Emery,DM49QE,On-Air,Sinbad Desert ARC,,Full-time to the Sinbad Desert (SDARC) System .,UVHFS,2015-08-04,,"Closed autopatch, remote base.","Wide area: Price on the west to Green River, Utah toward the south, bounded by the Bookcliffs on the north and east.",64264,http://sdarc.us/repeaters/cedar.html,7,,,,,,,3270,,,,,,,,,,,,,,,,,,,,,,,,,,,,,,,,,,,,,,,,,,,,,,,,,,,,,,,,,,,
447.175,-5,100,W0JRL,"Denver, Broadway Plaza Lofts",CO,OPEN,EA,,156.33,ESE,ON - IDLE,08,12216,39.75519943,-104.98699951,447.175,442.175,100,100,Denver,DM79MS,On-Air,W0JRL,,,CCARC,2015-05-15,,,,201712,,,,,,,,,,29997,Standard AllStar Link access commands.,,,,,,,,,,,,,,,,,,,,,,,,,,,,,,,,,,,,,,,,,,,,,,,,,,,,,,,,,
447.925,-5,100,K0FEZ,Denver,CO,OPEN,,,156.61,ESE,,08,8196,39.73759842,-104.98500061,447.925,442.925,100,100,Denver,,On-Air,RADOPS El Jebel Shriners,,,CCARC,2014-07-03,,,,,,,,,,,,,,,,,,,,,,,,,,,,,,,,,,,,,,,,,,,,,,,,,,,,,,,,,,,,,,,,,,,,,,,,
447.9,-5,CSQ,WB0TPT,Denver,CO,OPEN,,,156.61,ESE,,08,8195,39.73759842,-104.98500061,447.9,442.9,CSQ,,Denver,,Off-Air,WB0TPT,,,CCARC,2017-03-11,,,,,,,,,,,,,,,,,,,,,,,,,,,,,,,,,,,,,,,,,,,,,,,,,,,,,,,,,,,,,,,,,,,,,,,,
449.65,-5,136.5,WR0AEN,Denver,CO,OPEN,,S,156.61,ESE,,08,8212,39.73759842,-104.98500061,449.65,444.65,,,Denver,,On-Air,Colorado Amateur Repeater Network (CARN),,,CCARC,2012-11-16,,,,,,,,,,,,,,,,yes,WR0AEN (B),jfindu lookup / dstar-users lookup,,,,,,,,,,,,,,,,,,,,,,,,,,,,,,,,,,,,,,,,,,,,,,,,,,,,,,
449.675,-5,136.5,WR0AEN,Denver,CO,OPEN,I,S,156.61,ESE,,08,8213,39.73759842,-104.98500061,449.675,444.675,,,Denver,,On-Air,Colorado Amateur Repeater Network (CARN),,,CCARC,2012-11-16,,,,,,,,,,,,,7708,,,yes,WR0AEN (B),jfindu lookup / dstar-users lookup,,,,,,,,,,,,,,,,,,,,,,,,,,,,,,,,,,,,,,,,,,,,,,,,,,,,,,
145.43,-0.6,88.5,W7CEU,"Price, Wood Hill",UT,OPEN,,,156.62,W,,49,78,39.61190033,-110.81199646,145.43,144.83,88.5,,Carbon,DM49OO,,,,,UVHFS,2008-07-11,Unknown,5,Price.,,,,,,,,,,,,,,,,,,,,,,,,,,,,,,,,,,,,,,,,,,,,,,,,,,,,,,,,,,,,,,,,,,,,,
224.5,-1.6,88.5,W7CEU,"Price, Wood Hill",UT,OPEN,,,156.62,W,,49,2764,39.61190033,-110.81199646,224.5,222.9,88.5,,Carbon,DM49OO,,College of Eastern Utah ARC,,,UVHFS,2008-11-25,Unknown,5,,,,,,,,,,,,,,,,,,,,,,,,,,,,,,,,,,,,,,,,,,,,,,,,,,,,,,,,,,,,,,,,,,,,,,
448.3,-5,88.5,W7CEU,"Price, Wood Hill",UT,OPEN,,,156.62,W,,49,2765,39.61190033,-110.81199646,448.3,443.3,88.5,,Carbon,DM49OO,,College of Eastern Utah ARC,,,UVHFS,,Unknown,,Price.,,,,,,,,,,,,,,,,,,,,,,,,,,,,,,,,,,,,,,,,,,,,,,,,,,,,,,,,,,,,,,,,,,,,,
147.2,0.6,88.5,K7GX,"Price, Wood Hill",UT,OPEN,EI,,156.63,W,ON - IDLE,49,10058,39.61109924,-110.81199646,147.2,147.8,88.5,,Carbon,,On-Air,,,,UVHFS,2018-05-20,,,,64264,,,,,,,,,3270,,,,,,,,,,,,,,,,,,,,,,,,,,,,,,,,,,,,,,,,,,,,,,,,,,,,,,,,,,,
448.3,-5,,K7GX,"Price, Wood Hill",UT,OPEN,EI,,156.63,W,ON - IDLE,49,10061,39.61109924,-110.81199646,448.3,443.3,,,Carbon,,,,,,UVHFS,2013-08-05,Unknown,,,64264,,,,,,,,,3270,,,,,,,,,,,,,,,,,,,,,,,,,,,,,,,,,,,,,,,,,,,,,,,,,,,,,,,,,,,
145.475,-0.6,100,KE0SJ,"Boulder, Blue Mountain",CO,OPEN,,,156.64,ESE,,08,75,39.73920059,-104.98400116,145.475,144.875,100,,Jefferson,,On-Air,Intermountain Repeater Group,,,CCARC,2015-05-22,,E-power.,"Wide Area: Ft. Collins to the North, Colorado Springs to the South, Parts of Akron to the east.",,Intermountain Repeater Group,,,,,,,,,,,,,,,,,,,,,,,,,,,,,,,,,,,,,,,,,,,,,,,,,,,,,,,,,,,,,,,,,,,
146.715,-0.6,123,N0JXN,Denver,CO,OPEN,,,156.64,ESE,,08,79,39.73920059,-104.98400116,146.715,146.115,123,123,Denver,,On-Air,EARS,,,CCARC,2017-04-09,,E-power.,,,,,,,,,,,,,,,,,,,,,,,,,,,,,,,,,,,,,,,,,,,,,,,,,,,,,,,,,,,,,,,,,,,,,,
448.075,-5,123,N5EHP,Denver,CO,OPEN,,,156.64,ESE,,08,91,39.73920059,-104.98400116,448.075,443.075,123,,Denver,,On-Air,W0IG,,,CCARC,2017-03-11,,,,,,,,,,,,,,,,,,,,,,,,,,,,,,,,,,,,,,,,,,,,,,,,,,,,,,,,,,,,,,,,,,,,,,,,
448.55,-5,82.5,W0KIZ,Denver,CO,OPEN,,,156.64,ESE,,08,93,39.73920059,-104.98400116,448.55,443.55,82.5,,Denver,,Off-Air,HPRA,,,CCARC,2017-03-11,,E-power.,,,,,,,,,,,,,,,,,,,,,,,,,,,,,,,,,,,,,,,,,,,,,,,,,,,,,,,,,,,,,,,,,,,,,,
448.025,-5,100,W0UPS,"Loveland, Budweiser Event Center",CO,OPEN,,Y,156.75,,,08,3621,40.44400024,-104.98899841,448.025,443.025,100,100,Larimer,DN70MK,On-Air,Northern Colorado ARC,,,CCARC,2016-03-21,,,,,,,,,,,,,,,,,,,,,,,,yes,Open ↑ / Open ↓,Yes; analog capable.,,,,,,,,,,,,,,,,,,,,,,,,,,,,,,,,,,,,,,,,,,,,,,
446.925,-5,CC,N0ESQ,"Castle Rock, Devils Head",CO,OPEN,,D,158.18,SE,,08,7193,39.26480103,-105.11399841,446.925,441.925,,,Douglas,DM79KG,On-Air,,,Full-time to the Colorado TRBO System .,CCARC,2019-11-27,,,,,Rocky Mountain Ham Radio,See the website for programming info.,,yes,8,310817,RMHR c Record retrieved from radioid.net,,,,,,,,,"Open Talkgroup View Assignment TS TG Access Southern Colorado 1 719 Devilshead Local 2 711 function myFunction(id) { var x = document.getElementById(id); if (x.className.indexOf(""w3-show"") == -1) { x.className += "" w3-show""; } else { x.className = x.className.replace("" w3-show"", """"); } }",1,,,,,,,,,,,,,,,,,,,,,,,,,,,,,,2,,,,,,,,,,,,,,,,,,,,,
447.525,-5,146.2,N0ESQ,"Castle Rock, Devils Head (Pike National Forest)",CO,OPEN,,,158.18,SE,,08,8190,39.26480103,-105.11399841,447.525,442.525,146.2,146.2,Douglas,DM79KG,On-Air,EmComm Colorado,Colorado ARES,,CCARC,2015-06-17,,,"Denver metro north to the Wyoming border. Back country including Bailey, Deckers, Woodland Park. Severe null due east due to Devils Head Peak.",,,"This is not a ragchew machine. Traffic is limited to ARES, RACES and EmComm administrative, exercise, public service and disaster response.",,,,,,,,,,,,,,,,,,,,,,,,,,,,,,,,,,,,,,,,,,,,,,,,,,,,,,,,,,,,,,,,,,
446.875,-5,CC,N0SZ,Westcreek,CO,OPEN,,D,158.62,SE,,08,15900,39.15250015,-105.16400146,446.875,441.875,,,Douglas,,On-Air,W0VG,RMHAM,Full-time to the Colorado TRBO System .,CCARC,2019-11-27,,,,,http://www.rmham.org,,,yes,6,310846,RMHAM c Record retrieved from radioid.net,,,,,,,,,"Open Talkgroup View Assignment TS TG Access Rocky Mountain Wide 1 700 Full-Time Central Regional 2 720 Full-Time function myFunction(id) { var x = document.getElementById(id); if (x.className.indexOf(""w3-show"") == -1) { x.className += "" w3-show""; } else { x.className = x.className.replace("" w3-show"", """"); } }",,2,,,,,,,,,,,,,1,,,,,,,,,,,,,,,,,,,,,,,,,,,,,,,,,,,,,
